timestamp_utc,municipio,municipio_api,departamento,pais,lat,lon,temp,sensacion,temp_min,temp_max,humedad,presion,presion_nivel_mar,presion_suelo,viento,viento_direccion,viento_racha,nubosidad,visibilidad,lluvia_1h,lluvia_3h,nieve_1h,nieve_3h,amanecer_utc,atardecer_utc,timezone_seg,clima_id,clima_principal,descripcion,icono,dt_utc,base,cod
2026-06-27T15:43:42+00:00,Chiquiza,Sáchica,Boyacá,CO,5.6053,-73.4849,16.87,16.23,16.87,16.87,62,1016,1016,738,3.58,148,7.56,48,10000,,,,,2026-06-27T10:43:34+00:00,2026-06-27T23:10:14+00:00,-18000,802,Clouds,nubes dispersas,03d,2026-06-27T15:43:42+00:00,stations,200
2026-06-27T15:43:42+00:00,Chivata,Siachoque,Boyacá,CO,5.5573,-73.283,17.43,16.93,17.43,17.43,65,1017,1017,724,3.29,157,6.35,54,10000,,,,,2026-06-27T10:42:50+00:00,2026-06-27T23:09:21+00:00,-18000,803,Clouds,muy nuboso,04d,2026-06-27T15:43:42+00:00,stations,200
2026-06-27T15:43:42+00:00,Combita,Combita,Boyacá,CO,5.6337,-73.3243,16.6,15.93,16.6,16.6,62,1016,1016,725,3.22,153,6.56,53,10000,,,,,2026-06-27T10:42:52+00:00,2026-06-27T23:09:38+00:00,-18000,803,Clouds,muy nuboso,04d,2026-06-27T15:43:42+00:00,stations,200
2026-06-27T15:43:43+00:00,Cucaita,Cucaita,Boyacá,CO,5.5431,-73.4548,17.78,17.31,17.78,17.78,65,1017,1017,737,3.46,146,7.19,56,10000,,,,,2026-06-27T10:43:33+00:00,2026-06-27T23:10:00+00:00,-18000,803,Clouds,muy nuboso,04d,2026-06-27T15:43:43+00:00,stations,200
2026-06-27T15:43:43+00:00,Motavita,Tunja,Boyacá,CO,5.5763,-73.3674,15.16,14.4,15.16,15.16,64,1016,1016,732,3.35,153,6.87,54,10000,,,,,2026-06-27T10:43:08+00:00,2026-06-27T23:09:43+00:00,-18000,803,Clouds,muy nuboso,04d,2026-06-27T15:43:43+00:00,stations,200
2026-06-27T15:43:43+00:00,Oicata,Combita,Boyacá,CO,5.5944,-73.3082,17.18,16.6,17.18,17.18,63,1016,1016,725,3.28,155,6.57,54,10000,,,,,2026-06-27T10:42:52+00:00,2026-06-27T23:09:30+00:00,-18000,803,Clouds,muy nuboso,04d,2026-06-27T15:43:43+00:00,stations,200
2026-06-27T15:43:44+00:00,Samaca,Samacá,Boyacá,CO,5.4918,-73.4853,17.7,17.25,17.7,17.7,66,1017,1017,737,3.57,140,7.33,59,10000,,,,,2026-06-27T10:43:46+00:00,2026-06-27T23:10:02+00:00,-18000,803,Clouds,muy nuboso,04d,2026-06-27T15:43:43+00:00,stations,200
2026-06-27T15:43:44+00:00,Siachoque,Siachoque,Boyacá,CO,5.5131,-73.2449,15.82,15.18,15.82,15.82,66,1017,1017,726,3.34,163,5.94,56,10000,,,,,2026-06-27T10:42:46+00:00,2026-06-27T23:09:07+00:00,-18000,803,Clouds,muy nuboso,04d,2026-06-27T15:43:44+00:00,stations,200
2026-06-27T15:43:44+00:00,Sora,Cucaita,Boyacá,CO,5.5669,-73.4499,15.9,15.22,15.9,15.9,64,1016,1016,736,3.49,148,7.29,53,10000,,,,,2026-06-27T10:43:29+00:00,2026-06-27T23:10:02+00:00,-18000,803,Clouds,muy nuboso,04d,2026-06-27T15:43:44+00:00,stations,200
2026-06-27T15:43:44+00:00,Soraca,Tunja,Boyacá,CO,5.5011,-73.3329,16.44,15.86,16.44,16.44,66,1017,1017,731,3.23,159,6.25,58,10000,,,,,2026-06-27T10:43:08+00:00,2026-06-27T23:09:27+00:00,-18000,803,Clouds,muy nuboso,04d,2026-06-27T15:43:44+00:00,stations,200
2026-06-27T15:43:45+00:00,Sotaquira,Sotaquirá,Boyacá,CO,5.7655,-73.2478,18.8,18.17,18.8,18.8,55,1015,1015,731,2.53,137,6.11,48,10000,,,,,2026-06-27T10:42:20+00:00,2026-06-27T23:09:34+00:00,-18000,802,Clouds,nubes dispersas,03d,2026-06-27T15:43:45+00:00,stations,200
2026-06-27T15:43:45+00:00,Toca,Toca,Boyacá,CO,5.5651,-73.1847,17.92,17.46,17.92,17.92,65,1017,1017,717,3.34,155,5.89,53,10000,,,,,2026-06-27T10:42:26+00:00,2026-06-27T23:08:58+00:00,-18000,803,Clouds,muy nuboso,04d,2026-06-27T15:43:45+00:00,stations,200
2026-06-27T15:43:45+00:00,Tunja,Tunja,Boyacá,CO,5.5324,-73.3616,17.25,16.73,17.25,17.25,65,1017,1017,731,3.27,156,6.58,56,10000,,,,,2026-06-27T10:43:12+00:00,2026-06-27T23:09:37+00:00,-18000,803,Clouds,muy nuboso,04d,2026-06-27T15:43:45+00:00,stations,200
2026-06-27T15:43:46+00:00,Tuta,Tuta,Boyacá,CO,5.6902,-73.2277,20.07,19.67,20.07,20.07,59,1015,1015,724,2.88,137,6.1,51,10000,,,,,2026-06-27T10:42:23+00:00,2026-06-27T23:09:21+00:00,-18000,803,Clouds,muy nuboso,04d,2026-06-27T15:43:46+00:00,stations,200
2026-06-27T15:43:46+00:00,Ventaquemada,Ventaquemada,Boyacá,CO,5.3666,-73.5216,14.29,13.63,14.29,14.29,71,1018,1018,734,3.75,135,6.92,66,10000,,,,,2026-06-27T10:44:08+00:00,2026-06-27T23:09:58+00:00,-18000,803,Clouds,muy nuboso,04d,2026-06-27T15:43:46+00:00,stations,200
2026-06-27T15:43:46+00:00,Chiscas,Chiscas,Boyacá,CO,6.5535,-72.5004,19.25,18.69,19.25,19.25,56,1016,1016,714,2.77,275,2.77,37,10000,,,,,2026-06-27T10:37:58+00:00,2026-06-27T23:07:57+00:00,-18000,802,Clouds,nubes dispersas,03d,2026-06-27T15:43:46+00:00,stations,200
2026-06-27T15:43:46+00:00,El Cocuy,El Cocuy,Boyacá,CO,6.4077,-72.4458,19,18.47,19,19,58,1017,1017,690,2.47,213,3.23,52,10000,,,,,2026-06-27T10:38:00+00:00,2026-06-27T23:07:29+00:00,-18000,803,Clouds,muy nuboso,04d,2026-06-27T15:43:46+00:00,stations,200
2026-06-27T15:43:47+00:00,El Espino,El Espino,Boyacá,CO,6.4826,-72.4952,22.5,22.19,22.5,22.5,53,1016,1016,721,3.09,252,2.92,36,10000,,,,,2026-06-27T10:38:04+00:00,2026-06-27T23:07:49+00:00,-18000,802,Clouds,nubes dispersas,03d,2026-06-27T15:43:47+00:00,stations,200
2026-06-27T15:43:47+00:00,Guacamayas,El Espino,Boyacá,CO,6.4599,-72.5012,23.04,22.76,23.04,23.04,52,1016,1016,722,2.97,239,3.16,38,10000,,,,,2026-06-27T10:38:08+00:00,2026-06-27T23:07:48+00:00,-18000,802,Clouds,nubes dispersas,03d,2026-06-27T15:43:47+00:00,stations,200
2026-06-27T15:43:47+00:00,Guican,Güicán,Boyacá,CO,6.4617,-72.412,15.63,14.89,15.63,15.63,63,1018,1018,669,1.88,233,2.71,55,10000,,,,,2026-06-27T10:37:46+00:00,2026-06-27T23:07:27+00:00,-18000,803,Clouds,muy nuboso,04d,2026-06-27T15:43:47+00:00,stations,200
2026-06-27T15:43:47+00:00,Panqueba,El Cocuy,Boyacá,CO,6.4427,-72.459,23.31,23.13,23.31,23.31,55,1016,1016,705,2.81,236,3.09,44,10000,,,,,2026-06-27T10:37:59+00:00,2026-06-27T23:07:36+00:00,-18000,802,Clouds,nubes dispersas,03d,2026-06-27T15:43:47+00:00,stations,200
2026-06-27T15:43:48+00:00,Labranzagrande,Labranzagrande,Boyacá,CO,5.5629,-72.578,21.33,21.53,21.33,21.33,77,1020,1020,811,0.65,351,1.39,92,10000,,,,,2026-06-27T10:40:00+00:00,2026-06-27T23:06:32+00:00,-18000,804,Clouds,nubes,04d,2026-06-27T15:43:48+00:00,stations,200
2026-06-27T15:43:48+00:00,Pajarito,Pajarito,Boyacá,CO,5.2932,-72.7028,22.01,22.33,22.01,22.01,79,1018,1018,859,1.12,101,1.27,89,10000,,,,,2026-06-27T10:40:59+00:00,2026-06-27T23:06:34+00:00,-18000,804,Clouds,nubes,04d,2026-06-27T15:43:48+00:00,stations,200
2026-06-27T15:43:48+00:00,Paya,Departamento de Boyacá,Boyacá,CO,5.625,-72.4234,24.56,24.82,24.56,24.56,67,1018,1018,858,0.26,238,1.43,92,10000,,,,,2026-06-27T10:39:17+00:00,2026-06-27T23:06:01+00:00,-18000,804,Clouds,nubes,04d,2026-06-27T15:43:48+00:00,stations,200
2026-06-27T15:43:49+00:00,Pisba,Labranzagrande,Boyacá,CO,5.7198,-72.4859,19.36,19.07,19.36,19.36,66,1019,1019,793,0.85,154,1.52,96,10000,,,,,2026-06-27T10:39:22+00:00,2026-06-27T23:06:26+00:00,-18000,804,Clouds,nubes,04d,2026-06-27T15:43:49+00:00,stations,200
2026-06-27T15:43:49+00:00,Berbeo,Miraflores,Boyacá,CO,5.2261,-73.1265,21.92,21.86,21.92,21.92,65,1018,1018,788,2.51,154,3.01,83,10000,,,,,2026-06-27T10:42:47+00:00,2026-06-27T23:08:08+00:00,-18000,803,Clouds,muy nuboso,04d,2026-06-27T15:43:49+00:00,stations,200
2026-06-27T15:43:49+00:00,Campohermoso,Páez,Boyacá,CO,5.0315,-73.1044,19.55,19.39,19.55,19.55,70,1018,1018,849,2.15,160,1.84,97,10000,,,,,2026-06-27T10:43:02+00:00,2026-06-27T23:07:43+00:00,-18000,804,Clouds,nubes,04d,2026-06-27T15:43:49+00:00,stations,200
2026-06-27T15:43:49+00:00,Miraflores,Miraflores,Boyacá,CO,5.1955,-73.144,24.28,24.49,24.28,24.28,66,1018,1018,792,2.47,152,2.9,88,10000,,,,,2026-06-27T10:42:55+00:00,2026-06-27T23:08:09+00:00,-18000,804,Clouds,nubes,04d,2026-06-27T15:43:49+00:00,stations,200
2026-06-27T15:43:50+00:00,Paez,Páez,Boyacá,CO,5.102,-73.0522,26.37,26.37,26.37,26.37,66,1017,1017,843,2.19,160,1.99,90,10000,,,,,2026-06-27T10:42:43+00:00,2026-06-27T23:07:37+00:00,-18000,804,Clouds,nubes,04d,2026-06-27T15:43:50+00:00,stations,200
2026-06-27T15:43:50+00:00,San Eduardo,Miraflores,Boyacá,CO,5.2235,-73.0772,24.17,24.34,24.17,24.17,65,1018,1018,803,2.36,153,2.66,84,10000,,,,,2026-06-27T10:42:36+00:00,2026-06-27T23:07:56+00:00,-18000,803,Clouds,muy nuboso,04d,2026-06-27T15:43:50+00:00,stations,200
2026-06-27T15:43:50+00:00,Zetaquira,Zetaquira,Boyacá,CO,5.2819,-73.1678,24.21,24.41,24.21,24.21,66,1018,1018,774,2.68,156,3.41,82,10000,,,,,2026-06-27T10:42:51+00:00,2026-06-27T23:08:24+00:00,-18000,803,Clouds,muy nuboso,04d,2026-06-27T15:43:50+00:00,stations,200
2026-06-27T15:43:50+00:00,Boyaca,Ramiriquí,Boyacá,CO,5.4545,-73.3615,15.6,14.97,15.6,15.6,67,1017,1017,736,3.15,156,6.21,61,10000,,,,,2026-06-27T10:43:20+00:00,2026-06-27T23:09:29+00:00,-18000,803,Clouds,muy nuboso,04d,2026-06-27T15:43:50+00:00,stations,200
2026-06-27T15:43:51+00:00,Cienega,Ciénega,Boyacá,CO,5.4098,-73.2955,18.91,18.61,18.91,18.91,67,1018,1018,741,3.08,161,5.34,67,10000,,,,,2026-06-27T10:43:09+00:00,2026-06-27T23:09:08+00:00,-18000,803,Clouds,muy nuboso,04d,2026-06-27T15:43:51+00:00,stations,200
2026-06-27T15:43:51+00:00,Jenesano,Jenesano,Boyacá,CO,5.3854,-73.3644,20.25,20.11,20.25,20.25,68,1018,1018,745,2.93,153,5.36,71,10000,,,,,2026-06-27T10:43:28+00:00,2026-06-27T23:09:22+00:00,-18000,803,Clouds,muy nuboso,04d,2026-06-27T15:43:51+00:00,stations,200
2026-06-27T15:43:51+00:00,Nuevo Colon,Turmequé,Boyacá,CO,5.355,-73.4572,17.66,17.31,17.66,17.66,70,1018,1018,741,3.15,139,5.84,70,10000,,,,,2026-06-27T10:43:53+00:00,2026-06-27T23:09:41+00:00,-18000,803,Clouds,muy nuboso,04d,2026-06-27T15:43:51+00:00,stations,200
2026-06-27T15:43:52+00:00,Ramiriqui,Ramiriquí,Boyacá,CO,5.4005,-73.3359,17.91,17.53,17.91,17.91,68,1018,1018,741,3.01,154,5.68,67,10000,,,,,2026-06-27T10:43:19+00:00,2026-06-27T23:09:17+00:00,-18000,803,Clouds,muy nuboso,04d,2026-06-27T15:43:52+00:00,stations,200
2026-06-27T15:43:52+00:00,Rondon,Zetaquira,Boyacá,CO,5.3582,-73.2083,15.37,14.69,15.37,15.37,66,1018,1018,745,3.12,163,4.7,71,10000,,,,,2026-06-27T10:42:53+00:00,2026-06-27T23:08:42+00:00,-18000,803,Clouds,muy nuboso,04d,2026-06-27T15:43:52+00:00,stations,200
2026-06-27T15:43:52+00:00,Tibana,Tibaná,Boyacá,CO,5.318,-73.3966,20.04,19.9,20.04,20.04,69,1018,1018,750,2.79,144,4.93,76,10000,,,,,2026-06-27T10:43:43+00:00,2026-06-27T23:09:23+00:00,-18000,803,Clouds,muy nuboso,04d,2026-06-27T15:43:52+00:00,stations,200
2026-06-27T15:43:52+00:00,Turmeque,Turmequé,Boyacá,CO,5.3241,-73.4906,18.94,18.74,18.94,18.94,71,1018,1018,738,3.4,136,6.22,69,10000,,,,,2026-06-27T10:44:05+00:00,2026-06-27T23:09:46+00:00,-18000,803,Clouds,muy nuboso,04d,2026-06-27T15:43:52+00:00,stations,200
2026-06-27T15:43:53+00:00,Umbita,Úmbita,Boyacá,CO,5.2212,-73.457,16.66,16.21,16.66,16.66,70,1018,1018,755,2.76,131,4.68,72,10000,,,,,2026-06-27T10:44:07+00:00,2026-06-27T23:09:27+00:00,-18000,803,Clouds,muy nuboso,04d,2026-06-27T15:43:53+00:00,stations,200
2026-06-27T15:43:53+00:00,Viracacha,Ciénega,Boyacá,CO,5.435,-73.2962,17.91,17.51,17.91,17.91,67,1017,1017,736,3.17,162,5.63,63,10000,,,,,2026-06-27T10:43:06+00:00,2026-06-27T23:09:11+00:00,-18000,803,Clouds,muy nuboso,04d,2026-06-27T15:43:53+00:00,stations,200
2026-06-27T15:43:53+00:00,Chinavita,Chinavita,Boyacá,CO,5.169,-73.3687,19.16,18.93,19.16,19.16,69,1018,1018,769,2.43,132,3.74,80,10000,,,,,2026-06-27T10:43:52+00:00,2026-06-27T23:09:00+00:00,-18000,803,Clouds,muy nuboso,04d,2026-06-27T15:43:53+00:00,stations,200
2026-06-27T15:43:53+00:00,Garagoa,Garagoa,Boyacá,CO,5.0822,-73.3643,21.86,21.96,21.86,21.86,71,1018,1018,794,2.23,124,2.79,86,10000,,,,,2026-06-27T10:44:00+00:00,2026-06-27T23:08:50+00:00,-18000,804,Clouds,nubes,04d,2026-06-27T15:43:53+00:00,stations,200
2026-06-27T15:43:54+00:00,Macanal,Macanal,Boyacá,CO,4.9723,-73.32,19.66,19.59,19.66,19.66,73,1018,1018,822,2.03,122,2.08,89,10000,,,,,2026-06-27T10:44:00+00:00,2026-06-27T23:08:28+00:00,-18000,804,Clouds,nubes,04d,2026-06-27T15:43:54+00:00,stations,200
2026-06-27T15:43:54+00:00,Pachavita,Pachavita,Boyacá,CO,5.1405,-73.3981,21.38,21.4,21.38,21.38,70,1018,1018,775,2.37,128,3.48,81,10000,,,,,2026-06-27T10:44:02+00:00,2026-06-27T23:09:04+00:00,-18000,803,Clouds,muy nuboso,04d,2026-06-27T15:43:54+00:00,stations,200
2026-06-27T15:43:54+00:00,San Luis de Gaceno,San Luis de Gaceno,Boyacá,CO,4.8206,-73.1679,26.9,29.52,26.9,26.9,80,1017,1017,925,0.97,190,0.96,100,10000,,,,,2026-06-27T10:43:40+00:00,2026-06-27T23:07:36+00:00,-18000,804,Clouds,nubes,04d,2026-06-27T15:43:54+00:00,stations,200
2026-06-27T15:43:55+00:00,Santa Maria,Santa María,Boyacá,CO,4.8614,-73.2619,23.38,23.81,23.38,23.38,78,1017,1017,883,1.17,135,1.08,96,10000,,,,,2026-06-27T10:43:58+00:00,2026-06-27T23:08:03+00:00,-18000,804,Clouds,nubes,04d,2026-06-27T15:43:55+00:00,stations,200
2026-06-27T15:43:55+00:00,Boavita,Boavita,Boyacá,CO,6.329,-72.5823,23.82,23.48,23.82,23.82,47,1015,1015,734,3.74,152,4.78,41,10000,,,,,2026-06-27T10:38:41+00:00,2026-06-27T23:07:53+00:00,-18000,802,Clouds,nubes dispersas,03d,2026-06-27T15:43:55+00:00,stations,200
2026-06-27T15:43:55+00:00,Covarachia,Capitanejo,Boyacá,CO,6.501,-72.7383,26.23,26.23,26.23,26.23,36,1011,1011,809,0.51,192,2.24,10,10000,,,,,2026-06-27T10:39:00+00:00,2026-06-27T23:08:49+00:00,-18000,800,Clear,cielo claro,01d,2026-06-27T15:43:55+00:00,stations,200
2026-06-27T15:43:55+00:00,La Uvita,La Uvita,Boyacá,CO,6.318,-72.5603,21.91,21.41,21.91,21.91,48,1015,1015,727,3.68,156,4.82,48,10000,,,,,2026-06-27T10:38:37+00:00,2026-06-27T23:07:47+00:00,-18000,802,Clouds,nubes dispersas,03d,2026-06-27T15:43:55+00:00,stations,200
2026-06-27T15:43:56+00:00,San Mateo,San Mateo,Boyacá,CO,6.4018,-72.556,24.26,23.94,24.26,24.26,46,1014,1014,749,2.52,215,3.52,30,10000,,,,,2026-06-27T10:38:27+00:00,2026-06-27T23:07:55+00:00,-18000,802,Clouds,nubes dispersas,03d,2026-06-27T15:43:56+00:00,stations,200
2026-06-27T15:43:56+00:00,Sativanorte,Susacón,Boyacá,CO,6.1319,-72.7076,19.99,19.32,19.99,19.99,49,1016,1016,706,4.17,135,5.22,55,10000,,,,,2026-06-27T10:39:32+00:00,2026-06-27T23:08:03+00:00,-18000,803,Clouds,muy nuboso,04d,2026-06-27T15:43:56+00:00,stations,200
2026-06-27T15:43:56+00:00,Sativasur,Socotá,Boyacá,CO,6.0935,-72.7127,17.42,16.52,17.42,17.42,50,1016,1016,708,3.52,137,4.94,60,10000,,,,,2026-06-27T10:39:37+00:00,2026-06-27T23:08:00+00:00,-18000,803,Clouds,muy nuboso,04d,2026-06-27T15:43:56+00:00,stations,200
2026-06-27T15:43:56+00:00,Soata,Soatá,Boyacá,CO,6.3352,-72.6804,20.24,19.39,20.24,20.24,41,1013,1013,763,2.87,145,3.96,15,10000,,,,,2026-06-27T10:39:04+00:00,2026-06-27T23:08:18+00:00,-18000,801,Clouds,algo de nubes,02d,2026-06-27T15:43:56+00:00,stations,200
2026-06-27T15:43:57+00:00,Susacon,Susacón,Boyacá,CO,6.2311,-72.6904,21.55,20.96,21.55,21.55,46,1015,1015,718,4.56,135,5.15,37,10000,,,,,2026-06-27T10:39:17+00:00,2026-06-27T23:08:09+00:00,-18000,802,Clouds,nubes dispersas,03d,2026-06-27T15:43:57+00:00,stations,200
2026-06-27T15:43:57+00:00,Tipacoque,Tipacoque,Boyacá,CO,6.4212,-72.6914,24.28,23.76,24.28,24.28,38,1012,1012,787,1.62,161,3.16,9,10000,,,,,2026-06-27T10:38:57+00:00,2026-06-27T23:08:29+00:00,-18000,800,Clear,cielo claro,01d,2026-06-27T15:43:57+00:00,stations,200
2026-06-27T15:43:57+00:00,Briceno,Pauna,Boyacá,CO,5.6909,-73.9235,28.88,29.62,28.88,28.88,51,1012,1012,832,1.42,230,4.88,7,10000,,,,,2026-06-27T10:45:10+00:00,2026-06-27T23:12:08+00:00,-18000,800,Clear,cielo claro,01d,2026-06-27T15:43:57+00:00,stations,200
2026-06-27T15:43:57+00:00,Buenavista,Maripí,Boyacá,CO,5.5117,-73.9431,20.45,20.01,20.45,20.45,56,1014,1014,797,1.56,152,6.36,13,10000,,,,,2026-06-27T10:45:33+00:00,2026-06-27T23:11:54+00:00,-18000,801,Clouds,algo de nubes,02d,2026-06-27T15:43:57+00:00,stations,200
2026-06-27T15:43:58+00:00,Caldas,Simijaca,Boyacá,CO,5.5546,-73.8655,17.57,16.84,17.57,17.57,56,1014,1014,784,2.14,149,7.14,15,10000,,,,,2026-06-27T10:45:10+00:00,2026-06-27T23:11:40+00:00,-18000,801,Clouds,algo de nubes,02d,2026-06-27T15:43:58+00:00,stations,200
2026-06-27T15:43:58+00:00,Chiquinquira,Chiquinquirá,Boyacá,CO,5.6183,-73.8167,18.02,17.31,18.02,18.02,55,1014,1014,767,2.69,147,7.47,18,10000,,,,,2026-06-27T10:44:52+00:00,2026-06-27T23:11:35+00:00,-18000,801,Clouds,algo de nubes,02d,2026-06-27T15:43:58+00:00,stations,200
2026-06-27T15:43:58+00:00,Coper,Coper,Boyacá,CO,5.4758,-74.0452,28.21,29.2,28.21,28.21,55,1013,1013,820,0.67,199,4.53,10,10000,,,,,2026-06-27T10:46:02+00:00,2026-06-27T23:12:15+00:00,-18000,800,Clear,cielo claro,01d,2026-06-27T15:43:58+00:00,stations,200
2026-06-27T15:43:59+00:00,La Victoria,Quípama,Boyacá,CO,5.5235,-74.2346,24.62,24.52,24.62,24.62,53,1011,1011,884,1.32,270,2.18,7,10000,,,,,2026-06-27T10:46:42+00:00,2026-06-27T23:13:05+00:00,-18000,800,Clear,cielo claro,01d,2026-06-27T15:43:58+00:00,stations,200
2026-06-27T15:43:59+00:00,Maripi,Maripí,Boyacá,CO,5.5495,-74.0047,27.67,28.34,27.67,27.67,53,1012,1012,828,0.78,213,4.71,7,10000,,,,,2026-06-27T10:45:44+00:00,2026-06-27T23:12:13+00:00,-18000,800,Clear,cielo claro,01d,2026-06-27T15:43:59+00:00,stations,200
2026-06-27T15:43:59+00:00,Muzo,Muzo,Boyacá,CO,5.5321,-74.1028,28.74,29.56,28.74,28.74,52,1012,1012,857,1.1,263,3.11,5,10000,,,,,2026-06-27T10:46:10+00:00,2026-06-27T23:12:35+00:00,-18000,800,Clear,cielo claro,01d,2026-06-27T15:43:59+00:00,stations,200
2026-06-27T15:43:59+00:00,Otanche,Otanche,Boyacá,CO,5.66,-74.1817,29.58,30.59,29.58,29.58,51,1010,1010,895,1.62,287,2.5,4,10000,,,,,2026-06-27T10:46:15+00:00,2026-06-27T23:13:07+00:00,-18000,800,Clear,cielo claro,01d,2026-06-27T15:43:59+00:00,stations,200
2026-06-27T15:44:00+00:00,Pauna,Pauna,Boyacá,CO,5.6574,-73.9789,28.12,28.68,28.12,28.12,51,1012,1012,842,1.44,241,4.56,6,10000,,,,,2026-06-27T10:45:27+00:00,2026-06-27T23:12:18+00:00,-18000,800,Clear,cielo claro,01d,2026-06-27T15:44:00+00:00,stations,200
2026-06-27T15:44:00+00:00,Quipama,Quípama,Boyacá,CO,5.523,-74.1812,28.07,28.72,28.07,28.07,52,1011,1011,872,1.23,268,2.49,6,10000,,,,,2026-06-27T10:46:29+00:00,2026-06-27T23:12:53+00:00,-18000,800,Clear,cielo claro,01d,2026-06-27T15:44:00+00:00,stations,200
2026-06-27T15:44:00+00:00,Saboya,Saboyá,Boyacá,CO,5.6975,-73.7657,16.53,15.62,16.53,16.53,53,1014,1014,764,2.65,150,7.06,17,10000,,,,,2026-06-27T10:44:31+00:00,2026-06-27T23:11:31+00:00,-18000,801,Clouds,algo de nubes,02d,2026-06-27T15:44:00+00:00,stations,200
2026-06-27T15:44:00+00:00,San Miguel de Sema,El Mirador,Boyacá,CO,5.519,-73.723,16.93,16.32,16.93,16.93,63,1016,1016,736,4.39,135,9.23,37,10000,,,,,2026-06-27T10:44:40+00:00,2026-06-27T23:11:02+00:00,-18000,802,Clouds,nubes dispersas,03d,2026-06-27T15:44:00+00:00,stations,200
2026-06-27T15:44:01+00:00,San Pablo de Borbur,San Pablo de Borbur,Boyacá,CO,5.6578,-74.0625,27.86,28.38,27.86,27.86,51,1011,1011,873,1.81,272,3.24,4,10000,,,,,2026-06-27T10:45:47+00:00,2026-06-27T23:12:38+00:00,-18000,800,Clear,cielo claro,01d,2026-06-27T15:44:01+00:00,stations,200
2026-06-27T15:44:01+00:00,Tunungua,Florián,Boyacá,CO,5.73,-73.933,29.2,30.05,29.2,29.2,51,1012,1012,834,1.53,238,4.69,8,10000,,,,,2026-06-27T10:45:08+00:00,2026-06-27T23:12:15+00:00,-18000,800,Clear,cielo claro,01d,2026-06-27T15:44:01+00:00,stations,200
2026-06-27T15:44:01+00:00,Almeida,Macanal,Boyacá,CO,4.9712,-73.3788,20.72,20.7,20.72,20.72,71,1018,1018,806,2.27,113,2.55,81,10000,,,,,2026-06-27T10:44:15+00:00,2026-06-27T23:08:42+00:00,-18000,803,Clouds,muy nuboso,04d,2026-06-27T15:44:01+00:00,stations,200
2026-06-27T15:44:01+00:00,Chivor,Chivor,Boyacá,CO,4.8887,-73.3695,15.13,14.55,15.13,15.13,71,1018,1018,826,2.19,111,2.13,83,10000,,,,,2026-06-27T10:44:21+00:00,2026-06-27T23:08:31+00:00,-18000,803,Clouds,muy nuboso,04d,2026-06-27T15:44:01+00:00,stations,200
2026-06-27T15:44:02+00:00,Guateque,Guateque,Boyacá,CO,5.0063,-73.4731,18.55,18.24,18.55,18.55,68,1017,1017,780,2.69,111,3.8,70,10000,,,,,2026-06-27T10:44:34+00:00,2026-06-27T23:09:08+00:00,-18000,803,Clouds,muy nuboso,04d,2026-06-27T15:44:02+00:00,stations,200
2026-06-27T15:44:02+00:00,Guayata,Guayatá,Boyacá,CO,4.9648,-73.4907,21.94,21.94,21.94,21.94,67,1017,1017,786,2.73,108,3.53,72,10000,,,,,2026-06-27T10:44:42+00:00,2026-06-27T23:09:08+00:00,-18000,803,Clouds,muy nuboso,04d,2026-06-27T15:44:02+00:00,stations,200
2026-06-27T15:44:02+00:00,La Capilla,Tenza,Boyacá,CO,5.0958,-73.4447,17.49,17.1,17.49,17.49,69,1018,1018,771,2.55,120,3.92,72,10000,,,,,2026-06-27T10:44:17+00:00,2026-06-27T23:09:11+00:00,-18000,803,Clouds,muy nuboso,04d,2026-06-27T15:44:02+00:00,stations,200
2026-06-27T15:44:02+00:00,Somondoco,Somondoco,Boyacá,CO,4.986,-73.4326,23.05,23.19,23.05,23.05,68,1018,1018,791,2.55,109,3.24,74,10000,,,,,2026-06-27T10:44:26+00:00,2026-06-27T23:08:57+00:00,-18000,803,Clouds,muy nuboso,04d,2026-06-27T15:44:02+00:00,stations,200
2026-06-27T15:44:03+00:00,Sutatenza,Guateque,Boyacá,CO,5.0231,-73.4508,19.73,19.53,19.73,19.73,68,1018,1018,787,2.53,111,3.38,73,10000,,,,,2026-06-27T10:44:27+00:00,2026-06-27T23:09:05+00:00,-18000,803,Clouds,muy nuboso,04d,2026-06-27T15:44:03+00:00,stations,200
2026-06-27T15:44:03+00:00,Tenza,Tenza,Boyacá,CO,5.0767,-73.4198,20.97,20.95,20.97,20.97,70,1018,1018,782,2.39,118,3.34,77,10000,,,,,2026-06-27T10:44:13+00:00,2026-06-27T23:09:03+00:00,-18000,803,Clouds,muy nuboso,04d,2026-06-27T15:44:03+00:00,stations,200
2026-06-27T15:44:03+00:00,Arcabuco,Arcabuco,Boyacá,CO,5.7543,-73.4364,21.37,20.89,21.37,21.37,51,1013,1013,756,2.49,161,6.75,30,10000,,,,,2026-06-27T10:43:06+00:00,2026-06-27T23:10:18+00:00,-18000,802,Clouds,nubes dispersas,03d,2026-06-27T15:44:03+00:00,stations,200
2026-06-27T15:44:04+00:00,Chitaraque,Santana,Boyacá,CO,6.028,-73.4469,28.04,27.7,28.04,28.04,40,1010,1010,825,1.18,339,4.06,10,10000,,,,,2026-06-27T10:42:40+00:00,2026-06-27T23:10:49+00:00,-18000,800,Clear,cielo claro,01d,2026-06-27T15:44:04+00:00,stations,200
2026-06-27T15:44:04+00:00,Gachantiva,Santa Sofía,Boyacá,CO,5.7516,-73.5483,22.27,21.86,22.27,22.27,50,1013,1013,757,2.71,157,7.05,22,10000,,,,,2026-06-27T10:43:33+00:00,2026-06-27T23:10:45+00:00,-18000,801,Clouds,algo de nubes,02d,2026-06-27T15:44:04+00:00,stations,200
2026-06-27T15:44:04+00:00,Moniquira,Moniquirá,Boyacá,CO,5.8763,-73.5732,27.55,27.47,27.55,27.55,43,1011,1011,785,0.94,135,5.77,14,10000,,,,,2026-06-27T10:43:26+00:00,2026-06-27T23:11:04+00:00,-18000,801,Clouds,algo de nubes,02d,2026-06-27T15:44:04+00:00,stations,200
2026-06-27T15:44:04+00:00,Raquira,Ráquira,Boyacá,CO,5.538,-73.6322,19.12,18.76,19.12,19.12,64,1016,1016,732,4.45,135,9.04,45,10000,,,,,2026-06-27T10:44:16+00:00,2026-06-27T23:10:42+00:00,-18000,802,Clouds,nubes dispersas,03d,2026-06-27T15:44:04+00:00,stations,200
2026-06-27T15:44:05+00:00,Sachica,Sáchica,Boyacá,CO,5.5845,-73.5428,21.77,21.6,21.77,21.77,61,1016,1016,736,3.84,144,8.07,44,10000,,,,,2026-06-27T10:43:50+00:00,2026-06-27T23:10:26+00:00,-18000,802,Clouds,nubes dispersas,03d,2026-06-27T15:44:05+00:00,stations,200
2026-06-27T15:44:05+00:00,San Jose de Pare,Güepsa,Boyacá,CO,6.0176,-73.5479,30.3,30.04,30.3,30.3,40,1010,1010,820,1.06,5,4.15,12,10000,,,,,2026-06-27T10:43:05+00:00,2026-06-27T23:11:12+00:00,-18000,801,Clouds,algo de nubes,02d,2026-06-27T15:44:05+00:00,stations,200
2026-06-27T15:44:05+00:00,Santa Sofia,Santa Sofía,Boyacá,CO,5.7136,-73.6031,18.84,18.19,18.84,18.84,54,1014,1014,745,3.45,150,7.74,26,10000,,,,,2026-06-27T10:43:51+00:00,2026-06-27T23:10:54+00:00,-18000,802,Clouds,nubes dispersas,03d,2026-06-27T15:44:05+00:00,stations,200
2026-06-27T15:44:05+00:00,Santana,Santana,Boyacá,CO,6.0575,-73.4822,26.17,26.17,26.17,26.17,40,1009,1009,831,1.33,346,3.62,10,10000,,,,,2026-06-27T10:42:45+00:00,2026-06-27T23:11:01+00:00,-18000,800,Clear,cielo claro,01d,2026-06-27T15:44:05+00:00,stations,200
2026-06-27T15:44:06+00:00,Sutamarchan,Sutamarchán,Boyacá,CO,5.6205,-73.6204,20.38,20.01,20.38,20.38,59,1015,1015,738,3.88,144,8.31,35,10000,,,,,2026-06-27T10:44:05+00:00,2026-06-27T23:10:48+00:00,-18000,802,Clouds,nubes dispersas,03d,2026-06-27T15:44:06+00:00,stations,200
2026-06-27T15:44:06+00:00,Tinjaca,Tres Esquinas,Boyacá,CO,5.5796,-73.6467,20.82,20.58,20.82,20.82,62,1016,1016,733,4.29,137,8.89,41,10000,,,,,2026-06-27T10:44:15+00:00,2026-06-27T23:10:50+00:00,-18000,802,Clouds,nubes dispersas,03d,2026-06-27T15:44:06+00:00,stations,200
2026-06-27T15:44:06+00:00,Togui,Moniquirá,Boyacá,CO,5.9378,-73.5131,28.51,28.29,28.51,28.51,42,1011,1011,800,0.21,61,5.27,14,10000,,,,,2026-06-27T10:43:05+00:00,2026-06-27T23:10:56+00:00,-18000,801,Clouds,algo de nubes,02d,2026-06-27T15:44:06+00:00,stations,200
2026-06-27T15:44:06+00:00,Villa de Leyva,Villa de Leyva,Boyacá,CO,5.6338,-73.524,21.71,21.48,21.71,21.71,59,1015,1015,739,3.62,150,7.74,41,10000,,,,,2026-06-27T10:43:40+00:00,2026-06-27T23:10:26+00:00,-18000,802,Clouds,nubes dispersas,03d,2026-06-27T15:44:06+00:00,stations,200
2026-06-27T15:44:07+00:00,Aquitania,Aquitania,Boyacá,CO,5.5176,-72.8832,13.51,12.95,13.51,13.51,78,1021,1021,704,2.62,134,3.09,80,10000,,,,,2026-06-27T10:41:18+00:00,2026-06-27T23:07:40+00:00,-18000,803,Clouds,muy nuboso,04d,2026-06-27T15:44:07+00:00,stations,200
2026-06-27T15:44:07+00:00,Cuitiva,Pesca,Boyacá,CO,5.5803,-72.9662,16.97,16.63,16.97,16.97,73,1019,1019,703,3.08,133,4.26,67,10000,,,,,2026-06-27T10:41:32+00:00,2026-06-27T23:08:07+00:00,-18000,803,Clouds,muy nuboso,04d,2026-06-27T15:44:07+00:00,stations,200
2026-06-27T15:44:07+00:00,Firavitoba,Firavitoba,Boyacá,CO,5.6692,-72.9934,19.46,19.13,19.46,19.46,64,1017,1017,718,3.12,116,5.16,51,10000,,,,,2026-06-27T10:41:29+00:00,2026-06-27T23:08:23+00:00,-18000,803,Clouds,muy nuboso,04d,2026-06-27T15:44:07+00:00,stations,200
2026-06-27T15:44:07+00:00,Gameza,Gámeza,Boyacá,CO,5.802,-72.805,14.54,14.01,14.54,14.54,75,1021,1021,712,2.78,115,3.92,88,10000,,,,,2026-06-27T10:40:30+00:00,2026-06-27T23:07:51+00:00,-18000,804,Clouds,nubes,04d,2026-06-27T15:44:07+00:00,stations,200
2026-06-27T15:44:08+00:00,Iza,Firavitoba,Boyacá,CO,5.6123,-72.9795,17.65,17.27,17.65,17.65,69,1018,1018,709,3.14,130,4.79,59,10000,,,,,2026-06-27T10:41:32+00:00,2026-06-27T23:08:13+00:00,-18000,803,Clouds,muy nuboso,04d,2026-06-27T15:44:08+00:00,stations,200
2026-06-27T15:44:08+00:00,Mongua,Mongua,Boyacá,CO,5.7553,-72.7983,15.68,15.34,15.68,15.68,78,1021,1021,711,2.75,113,3.75,86,10000,,,,,2026-06-27T10:40:33+00:00,2026-06-27T23:07:45+00:00,-18000,804,Clouds,nubes,04d,2026-06-27T15:44:08+00:00,stations,200
2026-06-27T15:44:08+00:00,Mongui,Monguí,Boyacá,CO,5.7222,-72.8494,15.16,14.64,15.16,15.16,73,1020,1020,711,3.05,108,4.27,72,10000,,,,,2026-06-27T10:40:49+00:00,2026-06-27T23:07:54+00:00,-18000,803,Clouds,muy nuboso,04d,2026-06-27T15:44:08+00:00,stations,200
2026-06-27T15:44:09+00:00,Nobsa,Nobsa,Boyacá,CO,5.7706,-72.9397,19.05,18.68,19.05,19.05,64,1018,1018,720,3.32,105,5.03,61,10000,,,,,2026-06-27T10:41:05+00:00,2026-06-27T23:08:21+00:00,-18000,803,Clouds,muy nuboso,04d,2026-06-27T15:44:09+00:00,stations,200
2026-06-27T15:44:09+00:00,Pesca,Pesca,Boyacá,CO,5.5583,-73.0515,15.54,14.93,15.54,15.54,68,1018,1018,713,3.32,144,5.09,58,10000,,,,,2026-06-27T10:41:55+00:00,2026-06-27T23:08:25+00:00,-18000,803,Clouds,muy nuboso,04d,2026-06-27T15:44:09+00:00,stations,200
2026-06-27T15:44:09+00:00,Sogamoso,Sogamoso,Boyacá,CO,5.7148,-72.9279,19.25,18.95,19.25,19.25,66,1018,1018,718,3.23,106,4.92,59,10000,,,,,2026-06-27T10:41:08+00:00,2026-06-27T23:08:12+00:00,-18000,803,Clouds,muy nuboso,04d,2026-06-27T15:44:09+00:00,stations,200
2026-06-27T15:44:09+00:00,Tibasosa,Tibasosa,Boyacá,CO,5.7456,-73.0036,19.99,19.59,19.99,19.99,59,1016,1016,725,3.26,107,5.41,49,10000,,,,,2026-06-27T10:41:23+00:00,2026-06-27T23:08:33+00:00,-18000,802,Clouds,nubes dispersas,03d,2026-06-27T15:44:09+00:00,stations,200
2026-06-27T15:44:10+00:00,Topaga,Tópaga,Boyacá,CO,5.7689,-72.832,16.32,15.97,16.32,16.32,75,1020,1020,712,2.95,110,4.09,80,10000,,,,,2026-06-27T10:40:40+00:00,2026-06-27T23:07:54+00:00,-18000,803,Clouds,muy nuboso,04d,2026-06-27T15:44:10+00:00,stations,200
2026-06-27T15:44:10+00:00,Tota,Pesca,Boyacá,CO,5.5611,-72.9859,16.61,16.18,16.61,16.61,71,1019,1019,707,3.2,137,4.58,63,10000,,,,,2026-06-27T10:41:39+00:00,2026-06-27T23:08:10+00:00,-18000,803,Clouds,muy nuboso,04d,2026-06-27T15:44:10+00:00,stations,200
2026-06-27T15:44:10+00:00,Belen,Belén,Boyacá,CO,5.9895,-72.9133,18.2,17.49,18.2,18.2,54,1016,1016,704,2.96,128,4.96,86,10000,,,,,2026-06-27T10:40:36+00:00,2026-06-27T23:08:37+00:00,-18000,804,Clouds,nubes,04d,2026-06-27T15:44:10+00:00,stations,200
2026-06-27T15:44:10+00:00,Busbanza,Corrales,Boyacá,CO,5.8308,-72.8839,19.25,18.9,19.25,19.25,64,1018,1018,715,3.31,110,4.92,75,10000,,,,,2026-06-27T10:40:46+00:00,2026-06-27T23:08:13+00:00,-18000,803,Clouds,muy nuboso,04d,2026-06-27T15:44:10+00:00,stations,200
2026-06-27T15:44:11+00:00,Cerinza,Cerinza,Boyacá,CO,5.9559,-72.9479,18.54,17.86,18.54,18.54,54,1016,1016,706,3.18,122,5.18,84,10000,,,,,2026-06-27T10:40:48+00:00,2026-06-27T23:08:42+00:00,-18000,803,Clouds,muy nuboso,04d,2026-06-27T15:44:11+00:00,stations,200
2026-06-27T15:44:11+00:00,Corrales,Corrales,Boyacá,CO,5.8298,-72.8439,17.96,17.56,17.96,17.96,67,1019,1019,713,3.16,112,4.65,80,10000,,,,,2026-06-27T10:40:36+00:00,2026-06-27T23:08:04+00:00,-18000,803,Clouds,muy nuboso,04d,2026-06-27T15:44:11+00:00,stations,200
2026-06-27T15:44:11+00:00,Duitama,Duitama,Boyacá,CO,5.8277,-73.0339,20.42,19.9,20.42,20.42,53,1015,1015,725,3.41,108,5.71,57,10000,,,,,2026-06-27T10:41:22+00:00,2026-06-27T23:08:49+00:00,-18000,803,Clouds,muy nuboso,04d,2026-06-27T15:44:11+00:00,stations,200
2026-06-27T15:44:12+00:00,Floresta,Floresta,Boyacá,CO,5.8598,-72.9188,19.11,18.62,19.11,19.11,59,1017,1017,714,3.43,111,5.19,76,10000,,,,,2026-06-27T10:40:51+00:00,2026-06-27T23:08:25+00:00,-18000,803,Clouds,muy nuboso,04d,2026-06-27T15:44:12+00:00,stations,200
2026-06-27T15:44:12+00:00,Paipa,Paipa,Boyacá,CO,5.7813,-73.1177,17.78,16.97,17.78,17.78,52,1015,1015,731,2.94,114,5.96,48,10000,,,,,2026-06-27T10:41:47+00:00,2026-06-27T23:09:04+00:00,-18000,802,Clouds,nubes dispersas,03d,2026-06-27T15:44:12+00:00,stations,200
2026-06-27T15:44:12+00:00,Santa Rosa de Viterbo,Santa Rosa de Viterbo,Boyacá,CO,5.8745,-72.9824,19.21,18.62,19.21,19.21,55,1016,1016,719,3.49,110,5.56,67,10000,,,,,2026-06-27T10:41:05+00:00,2026-06-27T23:08:42+00:00,-18000,803,Clouds,muy nuboso,04d,2026-06-27T15:44:12+00:00,stations,200
2026-06-27T15:44:12+00:00,Tutaza,Belén,Boyacá,CO,6.0321,-72.8567,16.07,15.12,16.07,16.07,53,1017,1017,705,2.76,135,4.7,82,10000,,,,,2026-06-27T10:40:18+00:00,2026-06-27T23:08:28+00:00,-18000,803,Clouds,muy nuboso,04d,2026-06-27T15:44:12+00:00,stations,200
2026-06-27T15:44:13+00:00,Beteitiva,Tasco,Boyacá,CO,5.9108,-72.8089,19.58,19.21,19.58,19.58,62,1018,1018,709,2.71,128,4.38,89,10000,,,,,2026-06-27T10:40:19+00:00,2026-06-27T23:08:04+00:00,-18000,804,Clouds,nubes,04d,2026-06-27T15:44:13+00:00,stations,200
2026-06-27T15:44:13+00:00,Chita,Chita,Boyacá,CO,6.1872,-72.4729,16.36,15.57,16.36,16.36,58,1018,1018,706,4.89,130,5.08,72,10000,,,,,2026-06-27T10:38:30+00:00,2026-06-27T23:07:12+00:00,-18000,803,Clouds,muy nuboso,04d,2026-06-27T15:44:13+00:00,stations,200
2026-06-27T15:44:13+00:00,Jerico,Chita,Boyacá,CO,6.1464,-72.5704,18.49,17.8,18.49,18.49,54,1017,1017,701,5.38,130,5.75,67,10000,,,,,2026-06-27T10:38:57+00:00,2026-06-27T23:07:31+00:00,-18000,803,Clouds,muy nuboso,04d,2026-06-27T15:44:13+00:00,stations,200
2026-06-27T15:44:13+00:00,Paz de Rio,Paz de Río,Boyacá,CO,5.9853,-72.7491,18.5,17.87,18.5,18.5,56,1018,1018,708,2.72,135,4.48,81,10000,,,,,2026-06-27T10:39:57+00:00,2026-06-27T23:07:57+00:00,-18000,803,Clouds,muy nuboso,04d,2026-06-27T15:44:13+00:00,stations,200
2026-06-27T15:44:14+00:00,Socha,Socha Viejo,Boyacá,CO,5.9975,-72.6912,22.68,22.49,22.68,22.68,57,1018,1018,707,2.84,135,4.48,78,10000,,,,,2026-06-27T10:39:42+00:00,2026-06-27T23:07:45+00:00,-18000,803,Clouds,muy nuboso,04d,2026-06-27T15:44:14+00:00,stations,200
2026-06-27T15:44:14+00:00,Socota,Socotá,Boyacá,CO,6.0412,-72.6366,22.18,21.89,22.18,22.18,55,1018,1018,703,3.94,131,5.13,69,10000,,,,,2026-06-27T10:39:24+00:00,2026-06-27T23:07:36+00:00,-18000,803,Clouds,muy nuboso,04d,2026-06-27T15:44:14+00:00,stations,200
2026-06-27T15:44:14+00:00,Tasco,Tasco,Boyacá,CO,5.91,-72.7812,19.58,19.21,19.58,19.58,62,1018,1018,709,2.71,128,4.38,89,10000,,,,,2026-06-27T10:40:13+00:00,2026-06-27T23:07:57+00:00,-18000,804,Clouds,nubes,04d,2026-06-27T15:44:14+00:00,stations,200
2026-06-27T15:44:15+00:00,Cubara,Cubará,Boyacá,CO,7.002,-72.1089,31.28,32.49,31.28,31.28,47,1015,1015,932,1.91,73,1.73,37,10000,,,,,2026-06-27T10:35:36+00:00,2026-06-27T23:07:11+00:00,-18000,802,Clouds,nubes dispersas,03d,2026-06-27T15:44:14+00:00,stations,200
2026-06-27T15:44:15+00:00,Puerto Boyaca,Puerto Boyacá,Boyacá,CO,5.9847,-74.5861,32.5,37.94,32.5,32.5,59,1009,1009,988,2.19,190,4.46,9,10000,,,,,2026-06-27T10:47:18+00:00,2026-06-27T23:15:18+00:00,-18000,800,Clear,cielo claro,01d,2026-06-27T15:41:20+00:00,stations,200
