timestamp_utc,municipio,municipio_api,departamento,pais,lat,lon,temp,sensacion,temp_min,temp_max,humedad,presion,presion_nivel_mar,presion_suelo,viento,viento_direccion,viento_racha,nubosidad,visibilidad,lluvia_1h,lluvia_3h,nieve_1h,nieve_3h,amanecer_utc,atardecer_utc,timezone_seg,clima_id,clima_principal,descripcion,icono,dt_utc,base,cod
2026-06-27T15:43:42+00:00,Chiquiza,Sáchica,Boyacá,CO,5.6053,-73.4849,16.87,16.23,16.87,16.87,62,1016,1016,738,3.58,148,7.56,48,10000,,,,,2026-06-27T10:43:34+00:00,2026-06-27T23:10:14+00:00,-18000,802,Clouds,nubes dispersas,03d,2026-06-27T15:43:42+00:00,stations,200
2026-06-27T15:43:42+00:00,Chivata,Siachoque,Boyacá,CO,5.5573,-73.283,17.43,16.93,17.43,17.43,65,1017,1017,724,3.29,157,6.35,54,10000,,,,,2026-06-27T10:42:50+00:00,2026-06-27T23:09:21+00:00,-18000,803,Clouds,muy nuboso,04d,2026-06-27T15:43:42+00:00,stations,200
2026-06-27T15:43:42+00:00,Combita,Combita,Boyacá,CO,5.6337,-73.3243,16.6,15.93,16.6,16.6,62,1016,1016,725,3.22,153,6.56,53,10000,,,,,2026-06-27T10:42:52+00:00,2026-06-27T23:09:38+00:00,-18000,803,Clouds,muy nuboso,04d,2026-06-27T15:43:42+00:00,stations,200
2026-06-27T15:43:43+00:00,Cucaita,Cucaita,Boyacá,CO,5.5431,-73.4548,17.78,17.31,17.78,17.78,65,1017,1017,737,3.46,146,7.19,56,10000,,,,,2026-06-27T10:43:33+00:00,2026-06-27T23:10:00+00:00,-18000,803,Clouds,muy nuboso,04d,2026-06-27T15:43:43+00:00,stations,200
2026-06-27T15:43:43+00:00,Motavita,Tunja,Boyacá,CO,5.5763,-73.3674,15.16,14.4,15.16,15.16,64,1016,1016,732,3.35,153,6.87,54,10000,,,,,2026-06-27T10:43:08+00:00,2026-06-27T23:09:43+00:00,-18000,803,Clouds,muy nuboso,04d,2026-06-27T15:43:43+00:00,stations,200
2026-06-27T15:43:43+00:00,Oicata,Combita,Boyacá,CO,5.5944,-73.3082,17.18,16.6,17.18,17.18,63,1016,1016,725,3.28,155,6.57,54,10000,,,,,2026-06-27T10:42:52+00:00,2026-06-27T23:09:30+00:00,-18000,803,Clouds,muy nuboso,04d,2026-06-27T15:43:43+00:00,stations,200
2026-06-27T15:43:44+00:00,Samaca,Samacá,Boyacá,CO,5.4918,-73.4853,17.7,17.25,17.7,17.7,66,1017,1017,737,3.57,140,7.33,59,10000,,,,,2026-06-27T10:43:46+00:00,2026-06-27T23:10:02+00:00,-18000,803,Clouds,muy nuboso,04d,2026-06-27T15:43:43+00:00,stations,200
2026-06-27T15:43:44+00:00,Siachoque,Siachoque,Boyacá,CO,5.5131,-73.2449,15.82,15.18,15.82,15.82,66,1017,1017,726,3.34,163,5.94,56,10000,,,,,2026-06-27T10:42:46+00:00,2026-06-27T23:09:07+00:00,-18000,803,Clouds,muy nuboso,04d,2026-06-27T15:43:44+00:00,stations,200
2026-06-27T15:43:44+00:00,Sora,Cucaita,Boyacá,CO,5.5669,-73.4499,15.9,15.22,15.9,15.9,64,1016,1016,736,3.49,148,7.29,53,10000,,,,,2026-06-27T10:43:29+00:00,2026-06-27T23:10:02+00:00,-18000,803,Clouds,muy nuboso,04d,2026-06-27T15:43:44+00:00,stations,200
2026-06-27T15:43:44+00:00,Soraca,Tunja,Boyacá,CO,5.5011,-73.3329,16.44,15.86,16.44,16.44,66,1017,1017,731,3.23,159,6.25,58,10000,,,,,2026-06-27T10:43:08+00:00,2026-06-27T23:09:27+00:00,-18000,803,Clouds,muy nuboso,04d,2026-06-27T15:43:44+00:00,stations,200
2026-06-27T15:43:45+00:00,Sotaquira,Sotaquirá,Boyacá,CO,5.7655,-73.2478,18.8,18.17,18.8,18.8,55,1015,1015,731,2.53,137,6.11,48,10000,,,,,2026-06-27T10:42:20+00:00,2026-06-27T23:09:34+00:00,-18000,802,Clouds,nubes dispersas,03d,2026-06-27T15:43:45+00:00,stations,200
2026-06-27T15:43:45+00:00,Toca,Toca,Boyacá,CO,5.5651,-73.1847,17.92,17.46,17.92,17.92,65,1017,1017,717,3.34,155,5.89,53,10000,,,,,2026-06-27T10:42:26+00:00,2026-06-27T23:08:58+00:00,-18000,803,Clouds,muy nuboso,04d,2026-06-27T15:43:45+00:00,stations,200
2026-06-27T15:43:45+00:00,Tunja,Tunja,Boyacá,CO,5.5324,-73.3616,17.25,16.73,17.25,17.25,65,1017,1017,731,3.27,156,6.58,56,10000,,,,,2026-06-27T10:43:12+00:00,2026-06-27T23:09:37+00:00,-18000,803,Clouds,muy nuboso,04d,2026-06-27T15:43:45+00:00,stations,200
2026-06-27T15:43:46+00:00,Tuta,Tuta,Boyacá,CO,5.6902,-73.2277,20.07,19.67,20.07,20.07,59,1015,1015,724,2.88,137,6.1,51,10000,,,,,2026-06-27T10:42:23+00:00,2026-06-27T23:09:21+00:00,-18000,803,Clouds,muy nuboso,04d,2026-06-27T15:43:46+00:00,stations,200
2026-06-27T15:43:46+00:00,Ventaquemada,Ventaquemada,Boyacá,CO,5.3666,-73.5216,14.29,13.63,14.29,14.29,71,1018,1018,734,3.75,135,6.92,66,10000,,,,,2026-06-27T10:44:08+00:00,2026-06-27T23:09:58+00:00,-18000,803,Clouds,muy nuboso,04d,2026-06-27T15:43:46+00:00,stations,200
2026-06-27T15:43:46+00:00,Chiscas,Chiscas,Boyacá,CO,6.5535,-72.5004,19.25,18.69,19.25,19.25,56,1016,1016,714,2.77,275,2.77,37,10000,,,,,2026-06-27T10:37:58+00:00,2026-06-27T23:07:57+00:00,-18000,802,Clouds,nubes dispersas,03d,2026-06-27T15:43:46+00:00,stations,200
2026-06-27T15:43:46+00:00,El Cocuy,El Cocuy,Boyacá,CO,6.4077,-72.4458,19,18.47,19,19,58,1017,1017,690,2.47,213,3.23,52,10000,,,,,2026-06-27T10:38:00+00:00,2026-06-27T23:07:29+00:00,-18000,803,Clouds,muy nuboso,04d,2026-06-27T15:43:46+00:00,stations,200
2026-06-27T15:43:47+00:00,El Espino,El Espino,Boyacá,CO,6.4826,-72.4952,22.5,22.19,22.5,22.5,53,1016,1016,721,3.09,252,2.92,36,10000,,,,,2026-06-27T10:38:04+00:00,2026-06-27T23:07:49+00:00,-18000,802,Clouds,nubes dispersas,03d,2026-06-27T15:43:47+00:00,stations,200
2026-06-27T15:43:47+00:00,Guacamayas,El Espino,Boyacá,CO,6.4599,-72.5012,23.04,22.76,23.04,23.04,52,1016,1016,722,2.97,239,3.16,38,10000,,,,,2026-06-27T10:38:08+00:00,2026-06-27T23:07:48+00:00,-18000,802,Clouds,nubes dispersas,03d,2026-06-27T15:43:47+00:00,stations,200
2026-06-27T15:43:47+00:00,Guican,Güicán,Boyacá,CO,6.4617,-72.412,15.63,14.89,15.63,15.63,63,1018,1018,669,1.88,233,2.71,55,10000,,,,,2026-06-27T10:37:46+00:00,2026-06-27T23:07:27+00:00,-18000,803,Clouds,muy nuboso,04d,2026-06-27T15:43:47+00:00,stations,200
2026-06-27T15:43:47+00:00,Panqueba,El Cocuy,Boyacá,CO,6.4427,-72.459,23.31,23.13,23.31,23.31,55,1016,1016,705,2.81,236,3.09,44,10000,,,,,2026-06-27T10:37:59+00:00,2026-06-27T23:07:36+00:00,-18000,802,Clouds,nubes dispersas,03d,2026-06-27T15:43:47+00:00,stations,200
2026-06-27T15:43:48+00:00,Labranzagrande,Labranzagrande,Boyacá,CO,5.5629,-72.578,21.33,21.53,21.33,21.33,77,1020,1020,811,0.65,351,1.39,92,10000,,,,,2026-06-27T10:40:00+00:00,2026-06-27T23:06:32+00:00,-18000,804,Clouds,nubes,04d,2026-06-27T15:43:48+00:00,stations,200
2026-06-27T15:43:48+00:00,Pajarito,Pajarito,Boyacá,CO,5.2932,-72.7028,22.01,22.33,22.01,22.01,79,1018,1018,859,1.12,101,1.27,89,10000,,,,,2026-06-27T10:40:59+00:00,2026-06-27T23:06:34+00:00,-18000,804,Clouds,nubes,04d,2026-06-27T15:43:48+00:00,stations,200
2026-06-27T15:43:48+00:00,Paya,Departamento de Boyacá,Boyacá,CO,5.625,-72.4234,24.56,24.82,24.56,24.56,67,1018,1018,858,0.26,238,1.43,92,10000,,,,,2026-06-27T10:39:17+00:00,2026-06-27T23:06:01+00:00,-18000,804,Clouds,nubes,04d,2026-06-27T15:43:48+00:00,stations,200
2026-06-27T15:43:49+00:00,Pisba,Labranzagrande,Boyacá,CO,5.7198,-72.4859,19.36,19.07,19.36,19.36,66,1019,1019,793,0.85,154,1.52,96,10000,,,,,2026-06-27T10:39:22+00:00,2026-06-27T23:06:26+00:00,-18000,804,Clouds,nubes,04d,2026-06-27T15:43:49+00:00,stations,200
2026-06-27T15:43:49+00:00,Berbeo,Miraflores,Boyacá,CO,5.2261,-73.1265,21.92,21.86,21.92,21.92,65,1018,1018,788,2.51,154,3.01,83,10000,,,,,2026-06-27T10:42:47+00:00,2026-06-27T23:08:08+00:00,-18000,803,Clouds,muy nuboso,04d,2026-06-27T15:43:49+00:00,stations,200
2026-06-27T15:43:49+00:00,Campohermoso,Páez,Boyacá,CO,5.0315,-73.1044,19.55,19.39,19.55,19.55,70,1018,1018,849,2.15,160,1.84,97,10000,,,,,2026-06-27T10:43:02+00:00,2026-06-27T23:07:43+00:00,-18000,804,Clouds,nubes,04d,2026-06-27T15:43:49+00:00,stations,200
2026-06-27T15:43:49+00:00,Miraflores,Miraflores,Boyacá,CO,5.1955,-73.144,24.28,24.49,24.28,24.28,66,1018,1018,792,2.47,152,2.9,88,10000,,,,,2026-06-27T10:42:55+00:00,2026-06-27T23:08:09+00:00,-18000,804,Clouds,nubes,04d,2026-06-27T15:43:49+00:00,stations,200
2026-06-27T15:43:50+00:00,Paez,Páez,Boyacá,CO,5.102,-73.0522,26.37,26.37,26.37,26.37,66,1017,1017,843,2.19,160,1.99,90,10000,,,,,2026-06-27T10:42:43+00:00,2026-06-27T23:07:37+00:00,-18000,804,Clouds,nubes,04d,2026-06-27T15:43:50+00:00,stations,200
2026-06-27T15:43:50+00:00,San Eduardo,Miraflores,Boyacá,CO,5.2235,-73.0772,24.17,24.34,24.17,24.17,65,1018,1018,803,2.36,153,2.66,84,10000,,,,,2026-06-27T10:42:36+00:00,2026-06-27T23:07:56+00:00,-18000,803,Clouds,muy nuboso,04d,2026-06-27T15:43:50+00:00,stations,200
2026-06-27T15:43:50+00:00,Zetaquira,Zetaquira,Boyacá,CO,5.2819,-73.1678,24.21,24.41,24.21,24.21,66,1018,1018,774,2.68,156,3.41,82,10000,,,,,2026-06-27T10:42:51+00:00,2026-06-27T23:08:24+00:00,-18000,803,Clouds,muy nuboso,04d,2026-06-27T15:43:50+00:00,stations,200
2026-06-27T15:43:50+00:00,Boyaca,Ramiriquí,Boyacá,CO,5.4545,-73.3615,15.6,14.97,15.6,15.6,67,1017,1017,736,3.15,156,6.21,61,10000,,,,,2026-06-27T10:43:20+00:00,2026-06-27T23:09:29+00:00,-18000,803,Clouds,muy nuboso,04d,2026-06-27T15:43:50+00:00,stations,200
2026-06-27T15:43:51+00:00,Cienega,Ciénega,Boyacá,CO,5.4098,-73.2955,18.91,18.61,18.91,18.91,67,1018,1018,741,3.08,161,5.34,67,10000,,,,,2026-06-27T10:43:09+00:00,2026-06-27T23:09:08+00:00,-18000,803,Clouds,muy nuboso,04d,2026-06-27T15:43:51+00:00,stations,200
2026-06-27T15:43:51+00:00,Jenesano,Jenesano,Boyacá,CO,5.3854,-73.3644,20.25,20.11,20.25,20.25,68,1018,1018,745,2.93,153,5.36,71,10000,,,,,2026-06-27T10:43:28+00:00,2026-06-27T23:09:22+00:00,-18000,803,Clouds,muy nuboso,04d,2026-06-27T15:43:51+00:00,stations,200
2026-06-27T15:43:51+00:00,Nuevo Colon,Turmequé,Boyacá,CO,5.355,-73.4572,17.66,17.31,17.66,17.66,70,1018,1018,741,3.15,139,5.84,70,10000,,,,,2026-06-27T10:43:53+00:00,2026-06-27T23:09:41+00:00,-18000,803,Clouds,muy nuboso,04d,2026-06-27T15:43:51+00:00,stations,200
2026-06-27T15:43:52+00:00,Ramiriqui,Ramiriquí,Boyacá,CO,5.4005,-73.3359,17.91,17.53,17.91,17.91,68,1018,1018,741,3.01,154,5.68,67,10000,,,,,2026-06-27T10:43:19+00:00,2026-06-27T23:09:17+00:00,-18000,803,Clouds,muy nuboso,04d,2026-06-27T15:43:52+00:00,stations,200
2026-06-27T15:43:52+00:00,Rondon,Zetaquira,Boyacá,CO,5.3582,-73.2083,15.37,14.69,15.37,15.37,66,1018,1018,745,3.12,163,4.7,71,10000,,,,,2026-06-27T10:42:53+00:00,2026-06-27T23:08:42+00:00,-18000,803,Clouds,muy nuboso,04d,2026-06-27T15:43:52+00:00,stations,200
2026-06-27T15:43:52+00:00,Tibana,Tibaná,Boyacá,CO,5.318,-73.3966,20.04,19.9,20.04,20.04,69,1018,1018,750,2.79,144,4.93,76,10000,,,,,2026-06-27T10:43:43+00:00,2026-06-27T23:09:23+00:00,-18000,803,Clouds,muy nuboso,04d,2026-06-27T15:43:52+00:00,stations,200
2026-06-27T15:43:52+00:00,Turmeque,Turmequé,Boyacá,CO,5.3241,-73.4906,18.94,18.74,18.94,18.94,71,1018,1018,738,3.4,136,6.22,69,10000,,,,,2026-06-27T10:44:05+00:00,2026-06-27T23:09:46+00:00,-18000,803,Clouds,muy nuboso,04d,2026-06-27T15:43:52+00:00,stations,200
2026-06-27T15:43:53+00:00,Umbita,Úmbita,Boyacá,CO,5.2212,-73.457,16.66,16.21,16.66,16.66,70,1018,1018,755,2.76,131,4.68,72,10000,,,,,2026-06-27T10:44:07+00:00,2026-06-27T23:09:27+00:00,-18000,803,Clouds,muy nuboso,04d,2026-06-27T15:43:53+00:00,stations,200
2026-06-27T15:43:53+00:00,Viracacha,Ciénega,Boyacá,CO,5.435,-73.2962,17.91,17.51,17.91,17.91,67,1017,1017,736,3.17,162,5.63,63,10000,,,,,2026-06-27T10:43:06+00:00,2026-06-27T23:09:11+00:00,-18000,803,Clouds,muy nuboso,04d,2026-06-27T15:43:53+00:00,stations,200
2026-06-27T15:43:53+00:00,Chinavita,Chinavita,Boyacá,CO,5.169,-73.3687,19.16,18.93,19.16,19.16,69,1018,1018,769,2.43,132,3.74,80,10000,,,,,2026-06-27T10:43:52+00:00,2026-06-27T23:09:00+00:00,-18000,803,Clouds,muy nuboso,04d,2026-06-27T15:43:53+00:00,stations,200
2026-06-27T15:43:53+00:00,Garagoa,Garagoa,Boyacá,CO,5.0822,-73.3643,21.86,21.96,21.86,21.86,71,1018,1018,794,2.23,124,2.79,86,10000,,,,,2026-06-27T10:44:00+00:00,2026-06-27T23:08:50+00:00,-18000,804,Clouds,nubes,04d,2026-06-27T15:43:53+00:00,stations,200
2026-06-27T15:43:54+00:00,Macanal,Macanal,Boyacá,CO,4.9723,-73.32,19.66,19.59,19.66,19.66,73,1018,1018,822,2.03,122,2.08,89,10000,,,,,2026-06-27T10:44:00+00:00,2026-06-27T23:08:28+00:00,-18000,804,Clouds,nubes,04d,2026-06-27T15:43:54+00:00,stations,200
2026-06-27T15:43:54+00:00,Pachavita,Pachavita,Boyacá,CO,5.1405,-73.3981,21.38,21.4,21.38,21.38,70,1018,1018,775,2.37,128,3.48,81,10000,,,,,2026-06-27T10:44:02+00:00,2026-06-27T23:09:04+00:00,-18000,803,Clouds,muy nuboso,04d,2026-06-27T15:43:54+00:00,stations,200
2026-06-27T15:43:54+00:00,San Luis de Gaceno,San Luis de Gaceno,Boyacá,CO,4.8206,-73.1679,26.9,29.52,26.9,26.9,80,1017,1017,925,0.97,190,0.96,100,10000,,,,,2026-06-27T10:43:40+00:00,2026-06-27T23:07:36+00:00,-18000,804,Clouds,nubes,04d,2026-06-27T15:43:54+00:00,stations,200
2026-06-27T15:43:55+00:00,Santa Maria,Santa María,Boyacá,CO,4.8614,-73.2619,23.38,23.81,23.38,23.38,78,1017,1017,883,1.17,135,1.08,96,10000,,,,,2026-06-27T10:43:58+00:00,2026-06-27T23:08:03+00:00,-18000,804,Clouds,nubes,04d,2026-06-27T15:43:55+00:00,stations,200
2026-06-27T15:43:55+00:00,Boavita,Boavita,Boyacá,CO,6.329,-72.5823,23.82,23.48,23.82,23.82,47,1015,1015,734,3.74,152,4.78,41,10000,,,,,2026-06-27T10:38:41+00:00,2026-06-27T23:07:53+00:00,-18000,802,Clouds,nubes dispersas,03d,2026-06-27T15:43:55+00:00,stations,200
2026-06-27T15:43:55+00:00,Covarachia,Capitanejo,Boyacá,CO,6.501,-72.7383,26.23,26.23,26.23,26.23,36,1011,1011,809,0.51,192,2.24,10,10000,,,,,2026-06-27T10:39:00+00:00,2026-06-27T23:08:49+00:00,-18000,800,Clear,cielo claro,01d,2026-06-27T15:43:55+00:00,stations,200
2026-06-27T15:43:55+00:00,La Uvita,La Uvita,Boyacá,CO,6.318,-72.5603,21.91,21.41,21.91,21.91,48,1015,1015,727,3.68,156,4.82,48,10000,,,,,2026-06-27T10:38:37+00:00,2026-06-27T23:07:47+00:00,-18000,802,Clouds,nubes dispersas,03d,2026-06-27T15:43:55+00:00,stations,200
2026-06-27T15:43:56+00:00,San Mateo,San Mateo,Boyacá,CO,6.4018,-72.556,24.26,23.94,24.26,24.26,46,1014,1014,749,2.52,215,3.52,30,10000,,,,,2026-06-27T10:38:27+00:00,2026-06-27T23:07:55+00:00,-18000,802,Clouds,nubes dispersas,03d,2026-06-27T15:43:56+00:00,stations,200
2026-06-27T15:43:56+00:00,Sativanorte,Susacón,Boyacá,CO,6.1319,-72.7076,19.99,19.32,19.99,19.99,49,1016,1016,706,4.17,135,5.22,55,10000,,,,,2026-06-27T10:39:32+00:00,2026-06-27T23:08:03+00:00,-18000,803,Clouds,muy nuboso,04d,2026-06-27T15:43:56+00:00,stations,200
2026-06-27T15:43:56+00:00,Sativasur,Socotá,Boyacá,CO,6.0935,-72.7127,17.42,16.52,17.42,17.42,50,1016,1016,708,3.52,137,4.94,60,10000,,,,,2026-06-27T10:39:37+00:00,2026-06-27T23:08:00+00:00,-18000,803,Clouds,muy nuboso,04d,2026-06-27T15:43:56+00:00,stations,200
2026-06-27T15:43:56+00:00,Soata,Soatá,Boyacá,CO,6.3352,-72.6804,20.24,19.39,20.24,20.24,41,1013,1013,763,2.87,145,3.96,15,10000,,,,,2026-06-27T10:39:04+00:00,2026-06-27T23:08:18+00:00,-18000,801,Clouds,algo de nubes,02d,2026-06-27T15:43:56+00:00,stations,200
2026-06-27T15:43:57+00:00,Susacon,Susacón,Boyacá,CO,6.2311,-72.6904,21.55,20.96,21.55,21.55,46,1015,1015,718,4.56,135,5.15,37,10000,,,,,2026-06-27T10:39:17+00:00,2026-06-27T23:08:09+00:00,-18000,802,Clouds,nubes dispersas,03d,2026-06-27T15:43:57+00:00,stations,200
2026-06-27T15:43:57+00:00,Tipacoque,Tipacoque,Boyacá,CO,6.4212,-72.6914,24.28,23.76,24.28,24.28,38,1012,1012,787,1.62,161,3.16,9,10000,,,,,2026-06-27T10:38:57+00:00,2026-06-27T23:08:29+00:00,-18000,800,Clear,cielo claro,01d,2026-06-27T15:43:57+00:00,stations,200
2026-06-27T15:43:57+00:00,Briceno,Pauna,Boyacá,CO,5.6909,-73.9235,28.88,29.62,28.88,28.88,51,1012,1012,832,1.42,230,4.88,7,10000,,,,,2026-06-27T10:45:10+00:00,2026-06-27T23:12:08+00:00,-18000,800,Clear,cielo claro,01d,2026-06-27T15:43:57+00:00,stations,200
2026-06-27T15:43:57+00:00,Buenavista,Maripí,Boyacá,CO,5.5117,-73.9431,20.45,20.01,20.45,20.45,56,1014,1014,797,1.56,152,6.36,13,10000,,,,,2026-06-27T10:45:33+00:00,2026-06-27T23:11:54+00:00,-18000,801,Clouds,algo de nubes,02d,2026-06-27T15:43:57+00:00,stations,200
2026-06-27T15:43:58+00:00,Caldas,Simijaca,Boyacá,CO,5.5546,-73.8655,17.57,16.84,17.57,17.57,56,1014,1014,784,2.14,149,7.14,15,10000,,,,,2026-06-27T10:45:10+00:00,2026-06-27T23:11:40+00:00,-18000,801,Clouds,algo de nubes,02d,2026-06-27T15:43:58+00:00,stations,200
2026-06-27T15:43:58+00:00,Chiquinquira,Chiquinquirá,Boyacá,CO,5.6183,-73.8167,18.02,17.31,18.02,18.02,55,1014,1014,767,2.69,147,7.47,18,10000,,,,,2026-06-27T10:44:52+00:00,2026-06-27T23:11:35+00:00,-18000,801,Clouds,algo de nubes,02d,2026-06-27T15:43:58+00:00,stations,200
2026-06-27T15:43:58+00:00,Coper,Coper,Boyacá,CO,5.4758,-74.0452,28.21,29.2,28.21,28.21,55,1013,1013,820,0.67,199,4.53,10,10000,,,,,2026-06-27T10:46:02+00:00,2026-06-27T23:12:15+00:00,-18000,800,Clear,cielo claro,01d,2026-06-27T15:43:58+00:00,stations,200
2026-06-27T15:43:59+00:00,La Victoria,Quípama,Boyacá,CO,5.5235,-74.2346,24.62,24.52,24.62,24.62,53,1011,1011,884,1.32,270,2.18,7,10000,,,,,2026-06-27T10:46:42+00:00,2026-06-27T23:13:05+00:00,-18000,800,Clear,cielo claro,01d,2026-06-27T15:43:58+00:00,stations,200
2026-06-27T15:43:59+00:00,Maripi,Maripí,Boyacá,CO,5.5495,-74.0047,27.67,28.34,27.67,27.67,53,1012,1012,828,0.78,213,4.71,7,10000,,,,,2026-06-27T10:45:44+00:00,2026-06-27T23:12:13+00:00,-18000,800,Clear,cielo claro,01d,2026-06-27T15:43:59+00:00,stations,200
2026-06-27T15:43:59+00:00,Muzo,Muzo,Boyacá,CO,5.5321,-74.1028,28.74,29.56,28.74,28.74,52,1012,1012,857,1.1,263,3.11,5,10000,,,,,2026-06-27T10:46:10+00:00,2026-06-27T23:12:35+00:00,-18000,800,Clear,cielo claro,01d,2026-06-27T15:43:59+00:00,stations,200
2026-06-27T15:43:59+00:00,Otanche,Otanche,Boyacá,CO,5.66,-74.1817,29.58,30.59,29.58,29.58,51,1010,1010,895,1.62,287,2.5,4,10000,,,,,2026-06-27T10:46:15+00:00,2026-06-27T23:13:07+00:00,-18000,800,Clear,cielo claro,01d,2026-06-27T15:43:59+00:00,stations,200
2026-06-27T15:44:00+00:00,Pauna,Pauna,Boyacá,CO,5.6574,-73.9789,28.12,28.68,28.12,28.12,51,1012,1012,842,1.44,241,4.56,6,10000,,,,,2026-06-27T10:45:27+00:00,2026-06-27T23:12:18+00:00,-18000,800,Clear,cielo claro,01d,2026-06-27T15:44:00+00:00,stations,200
2026-06-27T15:44:00+00:00,Quipama,Quípama,Boyacá,CO,5.523,-74.1812,28.07,28.72,28.07,28.07,52,1011,1011,872,1.23,268,2.49,6,10000,,,,,2026-06-27T10:46:29+00:00,2026-06-27T23:12:53+00:00,-18000,800,Clear,cielo claro,01d,2026-06-27T15:44:00+00:00,stations,200
2026-06-27T15:44:00+00:00,Saboya,Saboyá,Boyacá,CO,5.6975,-73.7657,16.53,15.62,16.53,16.53,53,1014,1014,764,2.65,150,7.06,17,10000,,,,,2026-06-27T10:44:31+00:00,2026-06-27T23:11:31+00:00,-18000,801,Clouds,algo de nubes,02d,2026-06-27T15:44:00+00:00,stations,200
2026-06-27T15:44:00+00:00,San Miguel de Sema,El Mirador,Boyacá,CO,5.519,-73.723,16.93,16.32,16.93,16.93,63,1016,1016,736,4.39,135,9.23,37,10000,,,,,2026-06-27T10:44:40+00:00,2026-06-27T23:11:02+00:00,-18000,802,Clouds,nubes dispersas,03d,2026-06-27T15:44:00+00:00,stations,200
2026-06-27T15:44:01+00:00,San Pablo de Borbur,San Pablo de Borbur,Boyacá,CO,5.6578,-74.0625,27.86,28.38,27.86,27.86,51,1011,1011,873,1.81,272,3.24,4,10000,,,,,2026-06-27T10:45:47+00:00,2026-06-27T23:12:38+00:00,-18000,800,Clear,cielo claro,01d,2026-06-27T15:44:01+00:00,stations,200
2026-06-27T15:44:01+00:00,Tunungua,Florián,Boyacá,CO,5.73,-73.933,29.2,30.05,29.2,29.2,51,1012,1012,834,1.53,238,4.69,8,10000,,,,,2026-06-27T10:45:08+00:00,2026-06-27T23:12:15+00:00,-18000,800,Clear,cielo claro,01d,2026-06-27T15:44:01+00:00,stations,200
2026-06-27T15:44:01+00:00,Almeida,Macanal,Boyacá,CO,4.9712,-73.3788,20.72,20.7,20.72,20.72,71,1018,1018,806,2.27,113,2.55,81,10000,,,,,2026-06-27T10:44:15+00:00,2026-06-27T23:08:42+00:00,-18000,803,Clouds,muy nuboso,04d,2026-06-27T15:44:01+00:00,stations,200
2026-06-27T15:44:01+00:00,Chivor,Chivor,Boyacá,CO,4.8887,-73.3695,15.13,14.55,15.13,15.13,71,1018,1018,826,2.19,111,2.13,83,10000,,,,,2026-06-27T10:44:21+00:00,2026-06-27T23:08:31+00:00,-18000,803,Clouds,muy nuboso,04d,2026-06-27T15:44:01+00:00,stations,200
2026-06-27T15:44:02+00:00,Guateque,Guateque,Boyacá,CO,5.0063,-73.4731,18.55,18.24,18.55,18.55,68,1017,1017,780,2.69,111,3.8,70,10000,,,,,2026-06-27T10:44:34+00:00,2026-06-27T23:09:08+00:00,-18000,803,Clouds,muy nuboso,04d,2026-06-27T15:44:02+00:00,stations,200
2026-06-27T15:44:02+00:00,Guayata,Guayatá,Boyacá,CO,4.9648,-73.4907,21.94,21.94,21.94,21.94,67,1017,1017,786,2.73,108,3.53,72,10000,,,,,2026-06-27T10:44:42+00:00,2026-06-27T23:09:08+00:00,-18000,803,Clouds,muy nuboso,04d,2026-06-27T15:44:02+00:00,stations,200
2026-06-27T15:44:02+00:00,La Capilla,Tenza,Boyacá,CO,5.0958,-73.4447,17.49,17.1,17.49,17.49,69,1018,1018,771,2.55,120,3.92,72,10000,,,,,2026-06-27T10:44:17+00:00,2026-06-27T23:09:11+00:00,-18000,803,Clouds,muy nuboso,04d,2026-06-27T15:44:02+00:00,stations,200
2026-06-27T15:44:02+00:00,Somondoco,Somondoco,Boyacá,CO,4.986,-73.4326,23.05,23.19,23.05,23.05,68,1018,1018,791,2.55,109,3.24,74,10000,,,,,2026-06-27T10:44:26+00:00,2026-06-27T23:08:57+00:00,-18000,803,Clouds,muy nuboso,04d,2026-06-27T15:44:02+00:00,stations,200
2026-06-27T15:44:03+00:00,Sutatenza,Guateque,Boyacá,CO,5.0231,-73.4508,19.73,19.53,19.73,19.73,68,1018,1018,787,2.53,111,3.38,73,10000,,,,,2026-06-27T10:44:27+00:00,2026-06-27T23:09:05+00:00,-18000,803,Clouds,muy nuboso,04d,2026-06-27T15:44:03+00:00,stations,200
2026-06-27T15:44:03+00:00,Tenza,Tenza,Boyacá,CO,5.0767,-73.4198,20.97,20.95,20.97,20.97,70,1018,1018,782,2.39,118,3.34,77,10000,,,,,2026-06-27T10:44:13+00:00,2026-06-27T23:09:03+00:00,-18000,803,Clouds,muy nuboso,04d,2026-06-27T15:44:03+00:00,stations,200
2026-06-27T15:44:03+00:00,Arcabuco,Arcabuco,Boyacá,CO,5.7543,-73.4364,21.37,20.89,21.37,21.37,51,1013,1013,756,2.49,161,6.75,30,10000,,,,,2026-06-27T10:43:06+00:00,2026-06-27T23:10:18+00:00,-18000,802,Clouds,nubes dispersas,03d,2026-06-27T15:44:03+00:00,stations,200
2026-06-27T15:44:04+00:00,Chitaraque,Santana,Boyacá,CO,6.028,-73.4469,28.04,27.7,28.04,28.04,40,1010,1010,825,1.18,339,4.06,10,10000,,,,,2026-06-27T10:42:40+00:00,2026-06-27T23:10:49+00:00,-18000,800,Clear,cielo claro,01d,2026-06-27T15:44:04+00:00,stations,200
2026-06-27T15:44:04+00:00,Gachantiva,Santa Sofía,Boyacá,CO,5.7516,-73.5483,22.27,21.86,22.27,22.27,50,1013,1013,757,2.71,157,7.05,22,10000,,,,,2026-06-27T10:43:33+00:00,2026-06-27T23:10:45+00:00,-18000,801,Clouds,algo de nubes,02d,2026-06-27T15:44:04+00:00,stations,200
2026-06-27T15:44:04+00:00,Moniquira,Moniquirá,Boyacá,CO,5.8763,-73.5732,27.55,27.47,27.55,27.55,43,1011,1011,785,0.94,135,5.77,14,10000,,,,,2026-06-27T10:43:26+00:00,2026-06-27T23:11:04+00:00,-18000,801,Clouds,algo de nubes,02d,2026-06-27T15:44:04+00:00,stations,200
2026-06-27T15:44:04+00:00,Raquira,Ráquira,Boyacá,CO,5.538,-73.6322,19.12,18.76,19.12,19.12,64,1016,1016,732,4.45,135,9.04,45,10000,,,,,2026-06-27T10:44:16+00:00,2026-06-27T23:10:42+00:00,-18000,802,Clouds,nubes dispersas,03d,2026-06-27T15:44:04+00:00,stations,200
2026-06-27T15:44:05+00:00,Sachica,Sáchica,Boyacá,CO,5.5845,-73.5428,21.77,21.6,21.77,21.77,61,1016,1016,736,3.84,144,8.07,44,10000,,,,,2026-06-27T10:43:50+00:00,2026-06-27T23:10:26+00:00,-18000,802,Clouds,nubes dispersas,03d,2026-06-27T15:44:05+00:00,stations,200
2026-06-27T15:44:05+00:00,San Jose de Pare,Güepsa,Boyacá,CO,6.0176,-73.5479,30.3,30.04,30.3,30.3,40,1010,1010,820,1.06,5,4.15,12,10000,,,,,2026-06-27T10:43:05+00:00,2026-06-27T23:11:12+00:00,-18000,801,Clouds,algo de nubes,02d,2026-06-27T15:44:05+00:00,stations,200
2026-06-27T15:44:05+00:00,Santa Sofia,Santa Sofía,Boyacá,CO,5.7136,-73.6031,18.84,18.19,18.84,18.84,54,1014,1014,745,3.45,150,7.74,26,10000,,,,,2026-06-27T10:43:51+00:00,2026-06-27T23:10:54+00:00,-18000,802,Clouds,nubes dispersas,03d,2026-06-27T15:44:05+00:00,stations,200
2026-06-27T15:44:05+00:00,Santana,Santana,Boyacá,CO,6.0575,-73.4822,26.17,26.17,26.17,26.17,40,1009,1009,831,1.33,346,3.62,10,10000,,,,,2026-06-27T10:42:45+00:00,2026-06-27T23:11:01+00:00,-18000,800,Clear,cielo claro,01d,2026-06-27T15:44:05+00:00,stations,200
2026-06-27T15:44:06+00:00,Sutamarchan,Sutamarchán,Boyacá,CO,5.6205,-73.6204,20.38,20.01,20.38,20.38,59,1015,1015,738,3.88,144,8.31,35,10000,,,,,2026-06-27T10:44:05+00:00,2026-06-27T23:10:48+00:00,-18000,802,Clouds,nubes dispersas,03d,2026-06-27T15:44:06+00:00,stations,200
2026-06-27T15:44:06+00:00,Tinjaca,Tres Esquinas,Boyacá,CO,5.5796,-73.6467,20.82,20.58,20.82,20.82,62,1016,1016,733,4.29,137,8.89,41,10000,,,,,2026-06-27T10:44:15+00:00,2026-06-27T23:10:50+00:00,-18000,802,Clouds,nubes dispersas,03d,2026-06-27T15:44:06+00:00,stations,200
2026-06-27T15:44:06+00:00,Togui,Moniquirá,Boyacá,CO,5.9378,-73.5131,28.51,28.29,28.51,28.51,42,1011,1011,800,0.21,61,5.27,14,10000,,,,,2026-06-27T10:43:05+00:00,2026-06-27T23:10:56+00:00,-18000,801,Clouds,algo de nubes,02d,2026-06-27T15:44:06+00:00,stations,200
2026-06-27T15:44:06+00:00,Villa de Leyva,Villa de Leyva,Boyacá,CO,5.6338,-73.524,21.71,21.48,21.71,21.71,59,1015,1015,739,3.62,150,7.74,41,10000,,,,,2026-06-27T10:43:40+00:00,2026-06-27T23:10:26+00:00,-18000,802,Clouds,nubes dispersas,03d,2026-06-27T15:44:06+00:00,stations,200
2026-06-27T15:44:07+00:00,Aquitania,Aquitania,Boyacá,CO,5.5176,-72.8832,13.51,12.95,13.51,13.51,78,1021,1021,704,2.62,134,3.09,80,10000,,,,,2026-06-27T10:41:18+00:00,2026-06-27T23:07:40+00:00,-18000,803,Clouds,muy nuboso,04d,2026-06-27T15:44:07+00:00,stations,200
2026-06-27T15:44:07+00:00,Cuitiva,Pesca,Boyacá,CO,5.5803,-72.9662,16.97,16.63,16.97,16.97,73,1019,1019,703,3.08,133,4.26,67,10000,,,,,2026-06-27T10:41:32+00:00,2026-06-27T23:08:07+00:00,-18000,803,Clouds,muy nuboso,04d,2026-06-27T15:44:07+00:00,stations,200
2026-06-27T15:44:07+00:00,Firavitoba,Firavitoba,Boyacá,CO,5.6692,-72.9934,19.46,19.13,19.46,19.46,64,1017,1017,718,3.12,116,5.16,51,10000,,,,,2026-06-27T10:41:29+00:00,2026-06-27T23:08:23+00:00,-18000,803,Clouds,muy nuboso,04d,2026-06-27T15:44:07+00:00,stations,200
2026-06-27T15:44:07+00:00,Gameza,Gámeza,Boyacá,CO,5.802,-72.805,14.54,14.01,14.54,14.54,75,1021,1021,712,2.78,115,3.92,88,10000,,,,,2026-06-27T10:40:30+00:00,2026-06-27T23:07:51+00:00,-18000,804,Clouds,nubes,04d,2026-06-27T15:44:07+00:00,stations,200
2026-06-27T15:44:08+00:00,Iza,Firavitoba,Boyacá,CO,5.6123,-72.9795,17.65,17.27,17.65,17.65,69,1018,1018,709,3.14,130,4.79,59,10000,,,,,2026-06-27T10:41:32+00:00,2026-06-27T23:08:13+00:00,-18000,803,Clouds,muy nuboso,04d,2026-06-27T15:44:08+00:00,stations,200
2026-06-27T15:44:08+00:00,Mongua,Mongua,Boyacá,CO,5.7553,-72.7983,15.68,15.34,15.68,15.68,78,1021,1021,711,2.75,113,3.75,86,10000,,,,,2026-06-27T10:40:33+00:00,2026-06-27T23:07:45+00:00,-18000,804,Clouds,nubes,04d,2026-06-27T15:44:08+00:00,stations,200
2026-06-27T15:44:08+00:00,Mongui,Monguí,Boyacá,CO,5.7222,-72.8494,15.16,14.64,15.16,15.16,73,1020,1020,711,3.05,108,4.27,72,10000,,,,,2026-06-27T10:40:49+00:00,2026-06-27T23:07:54+00:00,-18000,803,Clouds,muy nuboso,04d,2026-06-27T15:44:08+00:00,stations,200
2026-06-27T15:44:09+00:00,Nobsa,Nobsa,Boyacá,CO,5.7706,-72.9397,19.05,18.68,19.05,19.05,64,1018,1018,720,3.32,105,5.03,61,10000,,,,,2026-06-27T10:41:05+00:00,2026-06-27T23:08:21+00:00,-18000,803,Clouds,muy nuboso,04d,2026-06-27T15:44:09+00:00,stations,200
2026-06-27T15:44:09+00:00,Pesca,Pesca,Boyacá,CO,5.5583,-73.0515,15.54,14.93,15.54,15.54,68,1018,1018,713,3.32,144,5.09,58,10000,,,,,2026-06-27T10:41:55+00:00,2026-06-27T23:08:25+00:00,-18000,803,Clouds,muy nuboso,04d,2026-06-27T15:44:09+00:00,stations,200
2026-06-27T15:44:09+00:00,Sogamoso,Sogamoso,Boyacá,CO,5.7148,-72.9279,19.25,18.95,19.25,19.25,66,1018,1018,718,3.23,106,4.92,59,10000,,,,,2026-06-27T10:41:08+00:00,2026-06-27T23:08:12+00:00,-18000,803,Clouds,muy nuboso,04d,2026-06-27T15:44:09+00:00,stations,200
2026-06-27T15:44:09+00:00,Tibasosa,Tibasosa,Boyacá,CO,5.7456,-73.0036,19.99,19.59,19.99,19.99,59,1016,1016,725,3.26,107,5.41,49,10000,,,,,2026-06-27T10:41:23+00:00,2026-06-27T23:08:33+00:00,-18000,802,Clouds,nubes dispersas,03d,2026-06-27T15:44:09+00:00,stations,200
2026-06-27T15:44:10+00:00,Topaga,Tópaga,Boyacá,CO,5.7689,-72.832,16.32,15.97,16.32,16.32,75,1020,1020,712,2.95,110,4.09,80,10000,,,,,2026-06-27T10:40:40+00:00,2026-06-27T23:07:54+00:00,-18000,803,Clouds,muy nuboso,04d,2026-06-27T15:44:10+00:00,stations,200
2026-06-27T15:44:10+00:00,Tota,Pesca,Boyacá,CO,5.5611,-72.9859,16.61,16.18,16.61,16.61,71,1019,1019,707,3.2,137,4.58,63,10000,,,,,2026-06-27T10:41:39+00:00,2026-06-27T23:08:10+00:00,-18000,803,Clouds,muy nuboso,04d,2026-06-27T15:44:10+00:00,stations,200
2026-06-27T15:44:10+00:00,Belen,Belén,Boyacá,CO,5.9895,-72.9133,18.2,17.49,18.2,18.2,54,1016,1016,704,2.96,128,4.96,86,10000,,,,,2026-06-27T10:40:36+00:00,2026-06-27T23:08:37+00:00,-18000,804,Clouds,nubes,04d,2026-06-27T15:44:10+00:00,stations,200
2026-06-27T15:44:10+00:00,Busbanza,Corrales,Boyacá,CO,5.8308,-72.8839,19.25,18.9,19.25,19.25,64,1018,1018,715,3.31,110,4.92,75,10000,,,,,2026-06-27T10:40:46+00:00,2026-06-27T23:08:13+00:00,-18000,803,Clouds,muy nuboso,04d,2026-06-27T15:44:10+00:00,stations,200
2026-06-27T15:44:11+00:00,Cerinza,Cerinza,Boyacá,CO,5.9559,-72.9479,18.54,17.86,18.54,18.54,54,1016,1016,706,3.18,122,5.18,84,10000,,,,,2026-06-27T10:40:48+00:00,2026-06-27T23:08:42+00:00,-18000,803,Clouds,muy nuboso,04d,2026-06-27T15:44:11+00:00,stations,200
2026-06-27T15:44:11+00:00,Corrales,Corrales,Boyacá,CO,5.8298,-72.8439,17.96,17.56,17.96,17.96,67,1019,1019,713,3.16,112,4.65,80,10000,,,,,2026-06-27T10:40:36+00:00,2026-06-27T23:08:04+00:00,-18000,803,Clouds,muy nuboso,04d,2026-06-27T15:44:11+00:00,stations,200
2026-06-27T15:44:11+00:00,Duitama,Duitama,Boyacá,CO,5.8277,-73.0339,20.42,19.9,20.42,20.42,53,1015,1015,725,3.41,108,5.71,57,10000,,,,,2026-06-27T10:41:22+00:00,2026-06-27T23:08:49+00:00,-18000,803,Clouds,muy nuboso,04d,2026-06-27T15:44:11+00:00,stations,200
2026-06-27T15:44:12+00:00,Floresta,Floresta,Boyacá,CO,5.8598,-72.9188,19.11,18.62,19.11,19.11,59,1017,1017,714,3.43,111,5.19,76,10000,,,,,2026-06-27T10:40:51+00:00,2026-06-27T23:08:25+00:00,-18000,803,Clouds,muy nuboso,04d,2026-06-27T15:44:12+00:00,stations,200
2026-06-27T15:44:12+00:00,Paipa,Paipa,Boyacá,CO,5.7813,-73.1177,17.78,16.97,17.78,17.78,52,1015,1015,731,2.94,114,5.96,48,10000,,,,,2026-06-27T10:41:47+00:00,2026-06-27T23:09:04+00:00,-18000,802,Clouds,nubes dispersas,03d,2026-06-27T15:44:12+00:00,stations,200
2026-06-27T15:44:12+00:00,Santa Rosa de Viterbo,Santa Rosa de Viterbo,Boyacá,CO,5.8745,-72.9824,19.21,18.62,19.21,19.21,55,1016,1016,719,3.49,110,5.56,67,10000,,,,,2026-06-27T10:41:05+00:00,2026-06-27T23:08:42+00:00,-18000,803,Clouds,muy nuboso,04d,2026-06-27T15:44:12+00:00,stations,200
2026-06-27T15:44:12+00:00,Tutaza,Belén,Boyacá,CO,6.0321,-72.8567,16.07,15.12,16.07,16.07,53,1017,1017,705,2.76,135,4.7,82,10000,,,,,2026-06-27T10:40:18+00:00,2026-06-27T23:08:28+00:00,-18000,803,Clouds,muy nuboso,04d,2026-06-27T15:44:12+00:00,stations,200
2026-06-27T15:44:13+00:00,Beteitiva,Tasco,Boyacá,CO,5.9108,-72.8089,19.58,19.21,19.58,19.58,62,1018,1018,709,2.71,128,4.38,89,10000,,,,,2026-06-27T10:40:19+00:00,2026-06-27T23:08:04+00:00,-18000,804,Clouds,nubes,04d,2026-06-27T15:44:13+00:00,stations,200
2026-06-27T15:44:13+00:00,Chita,Chita,Boyacá,CO,6.1872,-72.4729,16.36,15.57,16.36,16.36,58,1018,1018,706,4.89,130,5.08,72,10000,,,,,2026-06-27T10:38:30+00:00,2026-06-27T23:07:12+00:00,-18000,803,Clouds,muy nuboso,04d,2026-06-27T15:44:13+00:00,stations,200
2026-06-27T15:44:13+00:00,Jerico,Chita,Boyacá,CO,6.1464,-72.5704,18.49,17.8,18.49,18.49,54,1017,1017,701,5.38,130,5.75,67,10000,,,,,2026-06-27T10:38:57+00:00,2026-06-27T23:07:31+00:00,-18000,803,Clouds,muy nuboso,04d,2026-06-27T15:44:13+00:00,stations,200
2026-06-27T15:44:13+00:00,Paz de Rio,Paz de Río,Boyacá,CO,5.9853,-72.7491,18.5,17.87,18.5,18.5,56,1018,1018,708,2.72,135,4.48,81,10000,,,,,2026-06-27T10:39:57+00:00,2026-06-27T23:07:57+00:00,-18000,803,Clouds,muy nuboso,04d,2026-06-27T15:44:13+00:00,stations,200
2026-06-27T15:44:14+00:00,Socha,Socha Viejo,Boyacá,CO,5.9975,-72.6912,22.68,22.49,22.68,22.68,57,1018,1018,707,2.84,135,4.48,78,10000,,,,,2026-06-27T10:39:42+00:00,2026-06-27T23:07:45+00:00,-18000,803,Clouds,muy nuboso,04d,2026-06-27T15:44:14+00:00,stations,200
2026-06-27T15:44:14+00:00,Socota,Socotá,Boyacá,CO,6.0412,-72.6366,22.18,21.89,22.18,22.18,55,1018,1018,703,3.94,131,5.13,69,10000,,,,,2026-06-27T10:39:24+00:00,2026-06-27T23:07:36+00:00,-18000,803,Clouds,muy nuboso,04d,2026-06-27T15:44:14+00:00,stations,200
2026-06-27T15:44:14+00:00,Tasco,Tasco,Boyacá,CO,5.91,-72.7812,19.58,19.21,19.58,19.58,62,1018,1018,709,2.71,128,4.38,89,10000,,,,,2026-06-27T10:40:13+00:00,2026-06-27T23:07:57+00:00,-18000,804,Clouds,nubes,04d,2026-06-27T15:44:14+00:00,stations,200
2026-06-27T15:44:15+00:00,Cubara,Cubará,Boyacá,CO,7.002,-72.1089,31.28,32.49,31.28,31.28,47,1015,1015,932,1.91,73,1.73,37,10000,,,,,2026-06-27T10:35:36+00:00,2026-06-27T23:07:11+00:00,-18000,802,Clouds,nubes dispersas,03d,2026-06-27T15:44:14+00:00,stations,200
2026-06-27T15:44:15+00:00,Puerto Boyaca,Puerto Boyacá,Boyacá,CO,5.9847,-74.5861,32.5,37.94,32.5,32.5,59,1009,1009,988,2.19,190,4.46,9,10000,,,,,2026-06-27T10:47:18+00:00,2026-06-27T23:15:18+00:00,-18000,800,Clear,cielo claro,01d,2026-06-27T15:41:20+00:00,stations,200
2026-06-27T16:30:01+00:00,Chiquiza,Sáchica,Boyacá,CO,5.6053,-73.4849,17.44,16.81,17.44,17.44,60,1015,1015,737,3.7,150,7.33,51,10000,,,,,2026-06-27T10:43:34+00:00,2026-06-27T23:10:14+00:00,-18000,803,Clouds,muy nuboso,04d,2026-06-27T16:30:01+00:00,stations,200
2026-06-27T16:30:01+00:00,Chivata,Siachoque,Boyacá,CO,5.5573,-73.283,17.76,17.26,17.76,17.76,64,1016,1016,723,3.41,146,6.43,59,10000,,,,,2026-06-27T10:42:50+00:00,2026-06-27T23:09:21+00:00,-18000,803,Clouds,muy nuboso,04d,2026-06-27T16:30:01+00:00,stations,200
2026-06-27T16:30:01+00:00,Combita,Combita,Boyacá,CO,5.6337,-73.3243,16.88,16.24,16.88,16.88,62,1015,1015,725,3.33,143,6.71,57,10000,,,,,2026-06-27T10:42:52+00:00,2026-06-27T23:09:38+00:00,-18000,803,Clouds,muy nuboso,04d,2026-06-27T16:30:01+00:00,stations,200
2026-06-27T16:30:01+00:00,Cucaita,Cucaita,Boyacá,CO,5.5431,-73.4548,18.49,18.04,18.49,18.49,63,1016,1016,736,3.67,146,7.07,58,10000,,,,,2026-06-27T10:43:33+00:00,2026-06-27T23:10:00+00:00,-18000,803,Clouds,muy nuboso,04d,2026-06-27T16:30:01+00:00,stations,200
2026-06-27T16:30:01+00:00,Motavita,Tunja,Boyacá,CO,5.5763,-73.3674,15.72,14.99,15.72,15.72,63,1015,1015,732,3.56,149,6.92,58,10000,,,,,2026-06-27T10:43:08+00:00,2026-06-27T23:09:43+00:00,-18000,803,Clouds,muy nuboso,04d,2026-06-27T16:30:01+00:00,stations,200
2026-06-27T16:30:01+00:00,Oicata,Combita,Boyacá,CO,5.5944,-73.3082,17.54,16.99,17.54,17.54,63,1015,1015,725,3.42,145,6.7,58,10000,,,,,2026-06-27T10:42:52+00:00,2026-06-27T23:09:30+00:00,-18000,803,Clouds,muy nuboso,04d,2026-06-27T16:30:01+00:00,stations,200
2026-06-27T16:30:01+00:00,Samaca,Samacá,Boyacá,CO,5.4918,-73.4853,18.53,18.11,18.53,18.53,64,1016,1016,736,3.74,142,7.17,60,10000,,,,,2026-06-27T10:43:46+00:00,2026-06-27T23:10:02+00:00,-18000,803,Clouds,muy nuboso,04d,2026-06-27T16:30:01+00:00,stations,200
2026-06-27T16:30:01+00:00,Siachoque,Siachoque,Boyacá,CO,5.5131,-73.2449,16.21,15.61,16.21,16.21,66,1016,1016,725,3.36,150,5.92,61,10000,,,,,2026-06-27T10:42:46+00:00,2026-06-27T23:09:07+00:00,-18000,803,Clouds,muy nuboso,04d,2026-06-27T16:30:01+00:00,stations,200
2026-06-27T16:30:01+00:00,Sora,Cucaita,Boyacá,CO,5.5669,-73.4499,16.51,15.84,16.51,16.51,62,1015,1015,736,3.67,148,7.15,56,10000,,,,,2026-06-27T10:43:29+00:00,2026-06-27T23:10:02+00:00,-18000,803,Clouds,muy nuboso,04d,2026-06-27T16:30:01+00:00,stations,200
2026-06-27T16:30:01+00:00,Soraca,Tunja,Boyacá,CO,5.5011,-73.3329,17.07,16.5,17.07,17.07,64,1016,1016,731,3.44,149,6.37,61,10000,,,,,2026-06-27T10:43:08+00:00,2026-06-27T23:09:27+00:00,-18000,803,Clouds,muy nuboso,04d,2026-06-27T16:30:01+00:00,stations,200
2026-06-27T16:30:01+00:00,Sotaquira,Sotaquirá,Boyacá,CO,5.7655,-73.2478,18.67,18.05,18.67,18.67,56,1014,1014,731,2.8,121,5.97,54,10000,,,,,2026-06-27T10:42:20+00:00,2026-06-27T23:09:34+00:00,-18000,803,Clouds,muy nuboso,04d,2026-06-27T16:30:01+00:00,stations,200
2026-06-27T16:30:01+00:00,Toca,Toca,Boyacá,CO,5.5651,-73.1847,17.7,17.3,17.7,17.7,68,1017,1017,717,3.21,141,5.5,60,10000,,,,,2026-06-27T10:42:26+00:00,2026-06-27T23:08:58+00:00,-18000,803,Clouds,muy nuboso,04d,2026-06-27T16:30:01+00:00,stations,200
2026-06-27T16:30:02+00:00,Tunja,Tunja,Boyacá,CO,5.5324,-73.3616,17.85,17.36,17.85,17.85,64,1016,1016,731,3.52,148,6.69,60,10000,,,,,2026-06-27T10:43:12+00:00,2026-06-27T23:09:37+00:00,-18000,803,Clouds,muy nuboso,04d,2026-06-27T16:30:01+00:00,stations,200
2026-06-27T16:30:02+00:00,Tuta,Tuta,Boyacá,CO,5.6902,-73.2277,19.77,19.42,19.77,19.77,62,1015,1015,723,3.11,122,5.85,57,10000,,,,,2026-06-27T10:42:23+00:00,2026-06-27T23:09:21+00:00,-18000,803,Clouds,muy nuboso,04d,2026-06-27T16:30:02+00:00,stations,200
2026-06-27T16:30:02+00:00,Ventaquemada,Ventaquemada,Boyacá,CO,5.3666,-73.5216,15.34,14.71,15.34,15.34,68,1017,1017,734,3.73,137,7.03,66,10000,,,,,2026-06-27T10:44:08+00:00,2026-06-27T23:09:58+00:00,-18000,803,Clouds,muy nuboso,04d,2026-06-27T16:30:02+00:00,stations,200
2026-06-27T16:30:02+00:00,Chiscas,Chiscas,Boyacá,CO,6.5535,-72.5004,18.37,17.8,18.37,18.37,59,1016,1016,713,2.32,300,1.8,51,10000,,,,,2026-06-27T10:37:58+00:00,2026-06-27T23:07:57+00:00,-18000,803,Clouds,muy nuboso,04d,2026-06-27T16:30:02+00:00,stations,200
2026-06-27T16:30:02+00:00,El Cocuy,El Cocuy,Boyacá,CO,6.4077,-72.4458,18.63,18.09,18.63,18.63,59,1017,1017,690,1.56,208,2.51,60,10000,,,,,2026-06-27T10:38:00+00:00,2026-06-27T23:07:29+00:00,-18000,803,Clouds,muy nuboso,04d,2026-06-27T16:30:02+00:00,stations,200
2026-06-27T16:30:02+00:00,El Espino,El Espino,Boyacá,CO,6.4826,-72.4952,21.83,21.5,21.83,21.83,55,1015,1015,720,2.12,273,1.91,48,10000,,,,,2026-06-27T10:38:04+00:00,2026-06-27T23:07:49+00:00,-18000,802,Clouds,nubes dispersas,03d,2026-06-27T16:30:02+00:00,stations,200
2026-06-27T16:30:02+00:00,Guacamayas,El Espino,Boyacá,CO,6.4599,-72.5012,22.47,22.16,22.47,22.47,53,1015,1015,721,1.83,253,2.21,48,10000,,,,,2026-06-27T10:38:08+00:00,2026-06-27T23:07:48+00:00,-18000,802,Clouds,nubes dispersas,03d,2026-06-27T16:30:02+00:00,stations,200
2026-06-27T16:30:02+00:00,Guican,Güicán,Boyacá,CO,6.4617,-72.412,15.26,14.51,15.26,15.26,64,1017,1017,669,1.02,241,2.05,65,10000,,,,,2026-06-27T10:37:46+00:00,2026-06-27T23:07:27+00:00,-18000,803,Clouds,muy nuboso,04d,2026-06-27T16:30:02+00:00,stations,200
2026-06-27T16:30:02+00:00,Panqueba,El Cocuy,Boyacá,CO,6.4427,-72.459,22.79,22.59,22.79,22.79,56,1016,1016,704,1.71,247,2.18,54,10000,,,,,2026-06-27T10:37:59+00:00,2026-06-27T23:07:36+00:00,-18000,803,Clouds,muy nuboso,04d,2026-06-27T16:30:02+00:00,stations,200
2026-06-27T16:30:02+00:00,Labranzagrande,Labranzagrande,Boyacá,CO,5.5629,-72.578,21.78,21.92,21.78,21.78,73,1019,1019,811,0.18,68,1.21,94,10000,,,,,2026-06-27T10:40:00+00:00,2026-06-27T23:06:32+00:00,-18000,804,Clouds,nubes,04d,2026-06-27T16:30:02+00:00,stations,200
2026-06-27T16:30:02+00:00,Pajarito,Pajarito,Boyacá,CO,5.2932,-72.7028,23.52,23.73,23.52,23.52,69,1017,1017,859,1.71,120,1.77,89,10000,,,,,2026-06-27T10:40:59+00:00,2026-06-27T23:06:34+00:00,-18000,804,Clouds,nubes,04d,2026-06-27T16:30:02+00:00,stations,200
2026-06-27T16:30:02+00:00,Paya,Departamento de Boyacá,Boyacá,CO,5.625,-72.4234,24.53,24.81,24.53,24.53,68,1017,1017,858,0.68,174,1.12,92,10000,,,,,2026-06-27T10:39:17+00:00,2026-06-27T23:06:01+00:00,-18000,804,Clouds,nubes,04d,2026-06-27T16:30:02+00:00,stations,200
2026-06-27T16:30:02+00:00,Pisba,Labranzagrande,Boyacá,CO,5.7198,-72.4859,19.62,19.36,19.62,19.62,66,1018,1018,792,1.64,153,1.64,93,10000,,,,,2026-06-27T10:39:22+00:00,2026-06-27T23:06:26+00:00,-18000,804,Clouds,nubes,04d,2026-06-27T16:30:02+00:00,stations,200
2026-06-27T16:30:02+00:00,Berbeo,Miraflores,Boyacá,CO,5.2261,-73.1265,22.23,22.26,22.23,22.23,67,1017,1017,787,2.55,145,2.9,82,10000,,,,,2026-06-27T10:42:47+00:00,2026-06-27T23:08:08+00:00,-18000,803,Clouds,muy nuboso,04d,2026-06-27T16:30:02+00:00,stations,200
2026-06-27T16:30:02+00:00,Campohermoso,Páez,Boyacá,CO,5.0315,-73.1044,19.91,19.81,19.91,19.91,71,1017,1017,848,2.38,156,2.25,96,10000,,,,,2026-06-27T10:43:02+00:00,2026-06-27T23:07:43+00:00,-18000,804,Clouds,nubes,04d,2026-06-27T16:30:02+00:00,stations,200
2026-06-27T16:30:02+00:00,Miraflores,Miraflores,Boyacá,CO,5.1955,-73.144,24.86,25.12,24.86,24.86,66,1017,1017,792,2.66,145,2.94,86,10000,,,,,2026-06-27T10:42:55+00:00,2026-06-27T23:08:09+00:00,-18000,804,Clouds,nubes,04d,2026-06-27T16:30:02+00:00,stations,200
2026-06-27T16:30:02+00:00,Paez,Páez,Boyacá,CO,5.102,-73.0522,26,26,26,26,72,1017,1017,843,2.16,150,2.21,90,10000,,,,,2026-06-27T10:42:43+00:00,2026-06-27T23:07:37+00:00,-18000,804,Clouds,nubes,04d,2026-06-27T16:30:02+00:00,stations,200
2026-06-27T16:30:02+00:00,San Eduardo,Miraflores,Boyacá,CO,5.2235,-73.0772,24.2,24.45,24.2,24.2,68,1017,1017,802,2.38,144,2.6,83,10000,,,,,2026-06-27T10:42:36+00:00,2026-06-27T23:07:56+00:00,-18000,803,Clouds,muy nuboso,04d,2026-06-27T16:30:02+00:00,stations,200
2026-06-27T16:30:02+00:00,Zetaquira,Zetaquira,Boyacá,CO,5.2819,-73.1678,24.73,24.98,24.73,24.73,66,1017,1017,774,2.72,146,3.3,82,10000,,,,,2026-06-27T10:42:51+00:00,2026-06-27T23:08:24+00:00,-18000,803,Clouds,muy nuboso,04d,2026-06-27T16:30:02+00:00,stations,200
2026-06-27T16:30:02+00:00,Boyaca,Ramiriquí,Boyacá,CO,5.4545,-73.3615,16.38,15.74,16.38,16.38,64,1016,1016,735,3.43,148,6.36,63,10000,,,,,2026-06-27T10:43:20+00:00,2026-06-27T23:09:29+00:00,-18000,803,Clouds,muy nuboso,04d,2026-06-27T16:30:02+00:00,stations,200
2026-06-27T16:30:02+00:00,Cienega,Ciénega,Boyacá,CO,5.4098,-73.2955,19.72,19.44,19.72,19.72,65,1016,1016,740,3.26,150,5.47,69,10000,,,,,2026-06-27T10:43:09+00:00,2026-06-27T23:09:08+00:00,-18000,803,Clouds,muy nuboso,04d,2026-06-27T16:30:02+00:00,stations,200
2026-06-27T16:30:02+00:00,Jenesano,Jenesano,Boyacá,CO,5.3854,-73.3644,21.26,21.14,21.26,21.26,65,1016,1016,744,3.2,146,5.64,72,10000,,,,,2026-06-27T10:43:28+00:00,2026-06-27T23:09:22+00:00,-18000,803,Clouds,muy nuboso,04d,2026-06-27T16:30:02+00:00,stations,200
2026-06-27T16:30:02+00:00,Nuevo Colon,Turmequé,Boyacá,CO,5.355,-73.4572,18.71,18.39,18.71,18.71,67,1017,1017,741,3.26,139,6.16,69,10000,,,,,2026-06-27T10:43:53+00:00,2026-06-27T23:09:41+00:00,-18000,803,Clouds,muy nuboso,04d,2026-06-27T16:30:02+00:00,stations,200
2026-06-27T16:30:02+00:00,Ramiriqui,Ramiriquí,Boyacá,CO,5.4005,-73.3359,18.85,18.49,18.85,18.85,65,1016,1016,741,3.28,147,5.91,68,10000,,,,,2026-06-27T10:43:19+00:00,2026-06-27T23:09:17+00:00,-18000,803,Clouds,muy nuboso,04d,2026-06-27T16:30:02+00:00,stations,200
2026-06-27T16:30:02+00:00,Rondon,Zetaquira,Boyacá,CO,5.3582,-73.2083,16.03,15.39,16.03,16.03,65,1017,1017,745,3.12,151,4.65,73,10000,,,,,2026-06-27T10:42:53+00:00,2026-06-27T23:08:42+00:00,-18000,803,Clouds,muy nuboso,04d,2026-06-27T16:30:02+00:00,stations,200
2026-06-27T16:30:02+00:00,Tibana,Tibaná,Boyacá,CO,5.318,-73.3966,21.13,21.02,21.13,21.13,66,1017,1017,750,3.01,142,5.3,75,10000,,,,,2026-06-27T10:43:43+00:00,2026-06-27T23:09:23+00:00,-18000,803,Clouds,muy nuboso,04d,2026-06-27T16:30:02+00:00,stations,200
2026-06-27T16:30:02+00:00,Turmeque,Turmequé,Boyacá,CO,5.3241,-73.4906,19.99,19.82,19.99,19.99,68,1017,1017,738,3.43,138,6.49,68,10000,,,,,2026-06-27T10:44:05+00:00,2026-06-27T23:09:46+00:00,-18000,803,Clouds,muy nuboso,04d,2026-06-27T16:30:02+00:00,stations,200
2026-06-27T16:30:02+00:00,Umbita,Úmbita,Boyacá,CO,5.2212,-73.457,17.65,17.25,17.65,17.65,68,1017,1017,754,2.87,136,4.98,73,10000,,,,,2026-06-27T10:44:07+00:00,2026-06-27T23:09:27+00:00,-18000,803,Clouds,muy nuboso,04d,2026-06-27T16:30:02+00:00,stations,200
2026-06-27T16:30:02+00:00,Viracacha,Ciénega,Boyacá,CO,5.435,-73.2962,18.64,18.26,18.64,18.64,65,1016,1016,735,3.32,151,5.74,66,10000,,,,,2026-06-27T10:43:06+00:00,2026-06-27T23:09:11+00:00,-18000,803,Clouds,muy nuboso,04d,2026-06-27T16:30:02+00:00,stations,200
2026-06-27T16:30:02+00:00,Chinavita,Chinavita,Boyacá,CO,5.169,-73.3687,20.27,20.1,20.27,20.27,67,1017,1017,768,2.74,138,4.03,81,10000,,,,,2026-06-27T10:43:52+00:00,2026-06-27T23:09:00+00:00,-18000,803,Clouds,muy nuboso,04d,2026-06-27T16:30:02+00:00,stations,200
2026-06-27T16:30:02+00:00,Garagoa,Garagoa,Boyacá,CO,5.0822,-73.3643,23,23.13,23,23,68,1017,1017,793,2.67,141,2.95,87,10000,,,,,2026-06-27T10:44:00+00:00,2026-06-27T23:08:50+00:00,-18000,804,Clouds,nubes,04d,2026-06-27T16:30:02+00:00,stations,200
2026-06-27T16:30:03+00:00,Macanal,Macanal,Boyacá,CO,4.9723,-73.32,20.67,20.65,20.67,20.67,71,1017,1017,821,2.29,145,2.23,91,10000,,,,,2026-06-27T10:44:00+00:00,2026-06-27T23:08:28+00:00,-18000,804,Clouds,nubes,04d,2026-06-27T16:30:03+00:00,stations,200
2026-06-27T16:30:03+00:00,Pachavita,Pachavita,Boyacá,CO,5.1405,-73.3981,22.46,22.51,22.46,22.46,67,1017,1017,774,2.71,138,3.71,82,10000,,,,,2026-06-27T10:44:02+00:00,2026-06-27T23:09:04+00:00,-18000,803,Clouds,muy nuboso,04d,2026-06-27T16:30:03+00:00,stations,200
2026-06-27T16:30:03+00:00,San Luis de Gaceno,San Luis de Gaceno,Boyacá,CO,4.8206,-73.1679,28.04,31.59,28.04,28.04,76,1016,1016,924,1.21,201,1.32,97,10000,,,,,2026-06-27T10:43:40+00:00,2026-06-27T23:07:36+00:00,-18000,804,Clouds,nubes,04d,2026-06-27T16:30:03+00:00,stations,200
2026-06-27T16:30:03+00:00,Santa Maria,Santa María,Boyacá,CO,4.8614,-73.2619,24.14,24.59,24.14,24.14,76,1017,1017,882,1.1,163,1.4,97,10000,,,,,2026-06-27T10:43:58+00:00,2026-06-27T23:08:03+00:00,-18000,804,Clouds,nubes,04d,2026-06-27T16:30:03+00:00,stations,200
2026-06-27T16:30:03+00:00,Boavita,Boavita,Boyacá,CO,6.329,-72.5823,23.76,23.39,23.76,23.76,46,1014,1014,733,3.46,141,4.35,39,10000,,,,,2026-06-27T10:38:41+00:00,2026-06-27T23:07:53+00:00,-18000,802,Clouds,nubes dispersas,03d,2026-06-27T16:30:03+00:00,stations,200
2026-06-27T16:30:03+00:00,Covarachia,Capitanejo,Boyacá,CO,6.501,-72.7383,26.03,26.03,26.03,26.03,34,1010,1010,809,0.83,322,2.44,10,10000,,,,,2026-06-27T10:39:00+00:00,2026-06-27T23:08:49+00:00,-18000,800,Clear,cielo claro,01d,2026-06-27T16:30:03+00:00,stations,200
2026-06-27T16:30:03+00:00,La Uvita,La Uvita,Boyacá,CO,6.318,-72.5603,21.77,21.26,21.77,21.77,48,1014,1014,727,3.4,146,4.38,46,10000,,,,,2026-06-27T10:38:37+00:00,2026-06-27T23:07:47+00:00,-18000,802,Clouds,nubes dispersas,03d,2026-06-27T16:30:03+00:00,stations,200
2026-06-27T16:30:03+00:00,San Mateo,San Mateo,Boyacá,CO,6.4018,-72.556,23.85,23.49,23.85,23.85,46,1013,1013,748,1.25,223,2.74,37,10000,,,,,2026-06-27T10:38:27+00:00,2026-06-27T23:07:55+00:00,-18000,802,Clouds,nubes dispersas,03d,2026-06-27T16:30:03+00:00,stations,200
2026-06-27T16:30:03+00:00,Sativanorte,Susacón,Boyacá,CO,6.1319,-72.7076,20.57,19.88,20.57,20.57,46,1015,1015,706,4.34,129,5.58,45,10000,,,,,2026-06-27T10:39:32+00:00,2026-06-27T23:08:03+00:00,-18000,802,Clouds,nubes dispersas,03d,2026-06-27T16:30:03+00:00,stations,200
2026-06-27T16:30:03+00:00,Sativasur,Socotá,Boyacá,CO,6.0935,-72.7127,18.06,17.12,18.06,18.06,46,1015,1015,707,3.65,132,5.52,49,10000,,,,,2026-06-27T10:39:37+00:00,2026-06-27T23:08:00+00:00,-18000,802,Clouds,nubes dispersas,03d,2026-06-27T16:30:03+00:00,stations,200
2026-06-27T16:30:03+00:00,Soata,Soatá,Boyacá,CO,6.3352,-72.6804,20.32,19.43,20.32,20.32,39,1012,1012,763,2.39,128,3.67,15,10000,,,,,2026-06-27T10:39:04+00:00,2026-06-27T23:08:18+00:00,-18000,801,Clouds,algo de nubes,02d,2026-06-27T16:30:03+00:00,stations,200
2026-06-27T16:30:03+00:00,Susacon,Susacón,Boyacá,CO,6.2311,-72.6904,21.91,21.28,21.91,21.91,43,1014,1014,718,4.7,129,5.04,30,10000,,,,,2026-06-27T10:39:17+00:00,2026-06-27T23:08:09+00:00,-18000,802,Clouds,nubes dispersas,03d,2026-06-27T16:30:03+00:00,stations,200
2026-06-27T16:30:03+00:00,Tipacoque,Tipacoque,Boyacá,CO,6.4212,-72.6914,24.21,23.63,24.21,24.21,36,1011,1011,786,0.64,120,2.97,11,10000,,,,,2026-06-27T10:38:57+00:00,2026-06-27T23:08:29+00:00,-18000,801,Clouds,algo de nubes,02d,2026-06-27T16:30:03+00:00,stations,200
2026-06-27T16:30:03+00:00,Briceno,Pauna,Boyacá,CO,5.6909,-73.9235,29.63,30.51,29.63,29.63,50,1011,1011,831,1.63,245,4.88,6,10000,,,,,2026-06-27T10:45:10+00:00,2026-06-27T23:12:08+00:00,-18000,800,Clear,cielo claro,01d,2026-06-27T16:30:03+00:00,stations,200
2026-06-27T16:30:03+00:00,Buenavista,Maripí,Boyacá,CO,5.5117,-73.9431,21.58,21.23,21.58,21.58,55,1013,1013,796,1.29,167,5.9,12,10000,,,,,2026-06-27T10:45:33+00:00,2026-06-27T23:11:54+00:00,-18000,801,Clouds,algo de nubes,02d,2026-06-27T16:30:03+00:00,stations,200
2026-06-27T16:30:03+00:00,Caldas,Simijaca,Boyacá,CO,5.5546,-73.8655,18.57,17.89,18.57,18.57,54,1013,1013,783,1.85,156,6.7,15,10000,,,,,2026-06-27T10:45:10+00:00,2026-06-27T23:11:40+00:00,-18000,801,Clouds,algo de nubes,02d,2026-06-27T16:30:03+00:00,stations,200
2026-06-27T16:30:03+00:00,Chiquinquira,Chiquinquirá,Boyacá,CO,5.6183,-73.8167,18.85,18.17,18.85,18.85,53,1013,1013,767,2.63,149,7.31,18,10000,,,,,2026-06-27T10:44:52+00:00,2026-06-27T23:11:35+00:00,-18000,801,Clouds,algo de nubes,02d,2026-06-27T16:30:03+00:00,stations,200
2026-06-27T16:30:03+00:00,Coper,Coper,Boyacá,CO,5.4758,-74.0452,29.38,30.73,29.38,29.38,54,1012,1012,819,0.89,228,4.47,8,10000,,,,,2026-06-27T10:46:02+00:00,2026-06-27T23:12:15+00:00,-18000,800,Clear,cielo claro,01d,2026-06-27T16:30:03+00:00,stations,200
2026-06-27T16:30:03+00:00,La Victoria,Quípama,Boyacá,CO,5.5235,-74.2346,25.58,25.55,25.58,25.58,52,1010,1010,884,1.7,276,2.84,6,10000,,,,,2026-06-27T10:46:42+00:00,2026-06-27T23:13:05+00:00,-18000,800,Clear,cielo claro,01d,2026-06-27T16:30:03+00:00,stations,200
2026-06-27T16:30:03+00:00,Maripi,Maripí,Boyacá,CO,5.5495,-74.0047,28.74,29.56,28.74,28.74,52,1011,1011,828,1.12,241,4.54,5,10000,,,,,2026-06-27T10:45:44+00:00,2026-06-27T23:12:13+00:00,-18000,800,Clear,cielo claro,01d,2026-06-27T16:30:03+00:00,stations,200
2026-06-27T16:30:03+00:00,Muzo,Muzo,Boyacá,CO,5.5321,-74.1028,29.76,30.85,29.76,29.76,51,1011,1011,856,1.63,269,3.38,3,10000,,,,,2026-06-27T10:46:10+00:00,2026-06-27T23:12:35+00:00,-18000,800,Clear,cielo claro,01d,2026-06-27T16:30:03+00:00,stations,200
2026-06-27T16:30:03+00:00,Otanche,Otanche,Boyacá,CO,5.66,-74.1817,30.36,31.59,30.36,30.36,50,1009,1009,894,2.15,293,2.94,3,10000,,,,,2026-06-27T10:46:15+00:00,2026-06-27T23:13:07+00:00,-18000,800,Clear,cielo claro,01d,2026-06-27T16:30:03+00:00,stations,200
2026-06-27T16:30:03+00:00,Pauna,Pauna,Boyacá,CO,5.6574,-73.9789,28.95,29.59,28.95,28.95,50,1011,1011,841,1.79,256,4.52,4,10000,,,,,2026-06-27T10:45:27+00:00,2026-06-27T23:12:18+00:00,-18000,800,Clear,cielo claro,01d,2026-06-27T16:30:03+00:00,stations,200
2026-06-27T16:30:03+00:00,Quipama,Quípama,Boyacá,CO,5.523,-74.1812,29.06,29.86,29.06,29.06,51,1010,1010,872,1.7,274,3.02,4,10000,,,,,2026-06-27T10:46:29+00:00,2026-06-27T23:12:53+00:00,-18000,800,Clear,cielo claro,01d,2026-06-27T16:30:03+00:00,stations,200
2026-06-27T16:30:03+00:00,Saboya,Saboyá,Boyacá,CO,5.6975,-73.7657,17.22,16.33,17.22,17.22,51,1013,1013,763,2.77,152,7.2,17,10000,,,,,2026-06-27T10:44:31+00:00,2026-06-27T23:11:31+00:00,-18000,801,Clouds,algo de nubes,02d,2026-06-27T16:30:03+00:00,stations,200
2026-06-27T16:30:03+00:00,San Miguel de Sema,El Mirador,Boyacá,CO,5.519,-73.723,17.87,17.28,17.87,17.87,60,1015,1015,735,4.21,135,8.63,39,10000,,,,,2026-06-27T10:44:40+00:00,2026-06-27T23:11:02+00:00,-18000,802,Clouds,nubes dispersas,03d,2026-06-27T16:30:03+00:00,stations,200
2026-06-27T16:30:03+00:00,San Pablo de Borbur,San Pablo de Borbur,Boyacá,CO,5.6578,-74.0625,28.67,29.24,28.67,28.67,50,1010,1010,872,2.39,280,3.38,2,10000,,,,,2026-06-27T10:45:47+00:00,2026-06-27T23:12:38+00:00,-18000,800,Clear,cielo claro,01d,2026-06-27T16:30:03+00:00,stations,200
2026-06-27T16:30:03+00:00,Tunungua,Florián,Boyacá,CO,5.73,-73.933,29.86,30.84,29.86,29.86,50,1011,1011,833,1.74,250,4.72,6,10000,,,,,2026-06-27T10:45:08+00:00,2026-06-27T23:12:15+00:00,-18000,800,Clear,cielo claro,01d,2026-06-27T16:30:03+00:00,stations,200
2026-06-27T16:30:04+00:00,Almeida,Macanal,Boyacá,CO,4.9712,-73.3788,21.4,21.48,21.4,21.4,72,1018,1018,806,2.27,137,2.36,85,10000,,,,,2026-06-27T10:44:15+00:00,2026-06-27T23:08:42+00:00,-18000,804,Clouds,nubes,04d,2026-06-27T16:30:03+00:00,stations,200
2026-06-27T16:30:04+00:00,Chivor,Chivor,Boyacá,CO,4.8887,-73.3695,15.36,14.94,15.36,15.36,76,1018,1018,826,1.6,133,1.81,87,10000,,,,,2026-06-27T10:44:21+00:00,2026-06-27T23:08:31+00:00,-18000,804,Clouds,nubes,04d,2026-06-27T16:30:04+00:00,stations,200
2026-06-27T16:30:04+00:00,Guateque,Guateque,Boyacá,CO,5.0063,-73.4731,19.08,18.92,19.08,19.08,72,1018,1018,780,2.6,126,3.21,75,10000,,,,,2026-06-27T10:44:34+00:00,2026-06-27T23:09:08+00:00,-18000,803,Clouds,muy nuboso,04d,2026-06-27T16:30:04+00:00,stations,200
2026-06-27T16:30:04+00:00,Guayata,Guayatá,Boyacá,CO,4.9648,-73.4907,22.26,22.47,22.26,22.26,74,1018,1018,786,2.34,124,2.75,78,10000,,,,,2026-06-27T10:44:42+00:00,2026-06-27T23:09:08+00:00,-18000,803,Clouds,muy nuboso,04d,2026-06-27T16:30:04+00:00,stations,200
2026-06-27T16:30:04+00:00,La Capilla,Tenza,Boyacá,CO,5.0958,-73.4447,18.32,18.04,18.32,18.32,70,1017,1017,771,2.72,132,3.88,75,10000,,,,,2026-06-27T10:44:17+00:00,2026-06-27T23:09:11+00:00,-18000,803,Clouds,muy nuboso,04d,2026-06-27T16:30:04+00:00,stations,200
2026-06-27T16:30:04+00:00,Somondoco,Somondoco,Boyacá,CO,4.986,-73.4326,23.5,23.81,23.5,23.5,73,1018,1018,790,2.36,128,2.7,79,10000,,,,,2026-06-27T10:44:26+00:00,2026-06-27T23:08:57+00:00,-18000,803,Clouds,muy nuboso,04d,2026-06-27T16:30:04+00:00,stations,200
2026-06-27T16:30:04+00:00,Sutatenza,Guateque,Boyacá,CO,5.0231,-73.4508,20.3,20.27,20.3,20.3,72,1018,1018,786,2.49,129,2.93,78,10000,,,,,2026-06-27T10:44:27+00:00,2026-06-27T23:09:05+00:00,-18000,803,Clouds,muy nuboso,04d,2026-06-27T16:30:04+00:00,stations,200
2026-06-27T16:30:04+00:00,Tenza,Tenza,Boyacá,CO,5.0767,-73.4198,21.83,21.9,21.83,21.83,70,1017,1017,782,2.62,134,3.28,80,10000,,,,,2026-06-27T10:44:13+00:00,2026-06-27T23:09:03+00:00,-18000,803,Clouds,muy nuboso,04d,2026-06-27T16:30:04+00:00,stations,200
2026-06-27T16:30:04+00:00,Arcabuco,Arcabuco,Boyacá,CO,5.7543,-73.4364,21.6,21.12,21.6,21.6,50,1012,1012,755,2.44,158,6.67,36,10000,,,,,2026-06-27T10:43:06+00:00,2026-06-27T23:10:18+00:00,-18000,802,Clouds,nubes dispersas,03d,2026-06-27T16:30:04+00:00,stations,200
2026-06-27T16:30:04+00:00,Chitaraque,Santana,Boyacá,CO,6.028,-73.4469,28.34,27.76,28.34,28.34,37,1008,1008,824,1.41,351,4.07,15,10000,,,,,2026-06-27T10:42:40+00:00,2026-06-27T23:10:49+00:00,-18000,801,Clouds,algo de nubes,02d,2026-06-27T16:30:04+00:00,stations,200
2026-06-27T16:30:04+00:00,Gachantiva,Santa Sofía,Boyacá,CO,5.7516,-73.5483,22.59,22.18,22.59,22.59,49,1012,1012,756,2.77,161,6.97,28,10000,,,,,2026-06-27T10:43:33+00:00,2026-06-27T23:10:45+00:00,-18000,802,Clouds,nubes dispersas,03d,2026-06-27T16:30:04+00:00,stations,200
2026-06-27T16:30:04+00:00,Moniquira,Moniquirá,Boyacá,CO,5.8763,-73.5732,27.93,27.67,27.93,27.93,41,1010,1010,784,0.8,144,5.85,20,10000,,,,,2026-06-27T10:43:26+00:00,2026-06-27T23:11:04+00:00,-18000,801,Clouds,algo de nubes,02d,2026-06-27T16:30:04+00:00,stations,200
2026-06-27T16:30:04+00:00,Raquira,Ráquira,Boyacá,CO,5.538,-73.6322,20.02,19.7,20.02,20.02,62,1015,1015,731,4.34,136,8.48,47,10000,,,,,2026-06-27T10:44:16+00:00,2026-06-27T23:10:42+00:00,-18000,802,Clouds,nubes dispersas,03d,2026-06-27T16:30:04+00:00,stations,200
2026-06-27T16:30:04+00:00,Sachica,Sáchica,Boyacá,CO,5.5845,-73.5428,22.4,22.24,22.4,22.4,59,1015,1015,736,3.92,147,7.71,48,10000,,,,,2026-06-27T10:43:50+00:00,2026-06-27T23:10:26+00:00,-18000,802,Clouds,nubes dispersas,03d,2026-06-27T16:30:04+00:00,stations,200
2026-06-27T16:30:04+00:00,San Jose de Pare,Güepsa,Boyacá,CO,6.0176,-73.5479,30.63,30.07,30.63,30.63,37,1008,1008,819,1.34,351,4.3,16,10000,,,,,2026-06-27T10:43:05+00:00,2026-06-27T23:11:12+00:00,-18000,801,Clouds,algo de nubes,02d,2026-06-27T16:30:04+00:00,stations,200
2026-06-27T16:30:04+00:00,Santa Sofia,Santa Sofía,Boyacá,CO,5.7136,-73.6031,19.33,18.68,19.33,19.33,52,1013,1013,745,3.61,153,7.67,29,10000,,,,,2026-06-27T10:43:51+00:00,2026-06-27T23:10:54+00:00,-18000,802,Clouds,nubes dispersas,03d,2026-06-27T16:30:04+00:00,stations,200
2026-06-27T16:30:04+00:00,Santana,Santana,Boyacá,CO,6.0575,-73.4822,27.28,26.92,27.28,27.28,37,1008,1008,830,1.69,346,3.78,13,10000,,,,,2026-06-27T10:42:45+00:00,2026-06-27T23:11:01+00:00,-18000,801,Clouds,algo de nubes,02d,2026-06-27T16:30:04+00:00,stations,200
2026-06-27T16:30:04+00:00,Sutamarchan,Sutamarchán,Boyacá,CO,5.6205,-73.6204,21.01,20.63,21.01,21.01,56,1014,1014,737,3.99,147,8.02,38,10000,,,,,2026-06-27T10:44:05+00:00,2026-06-27T23:10:48+00:00,-18000,802,Clouds,nubes dispersas,03d,2026-06-27T16:30:04+00:00,stations,200
2026-06-27T16:30:04+00:00,Tinjaca,Tres Esquinas,Boyacá,CO,5.5796,-73.6467,21.63,21.42,21.63,21.63,60,1015,1015,733,4.25,139,8.41,43,10000,,,,,2026-06-27T10:44:15+00:00,2026-06-27T23:10:50+00:00,-18000,802,Clouds,nubes dispersas,03d,2026-06-27T16:30:04+00:00,stations,200
2026-06-27T16:30:04+00:00,Togui,Moniquirá,Boyacá,CO,5.9378,-73.5131,28.84,28.45,28.84,28.84,40,1009,1009,799,0.23,41,5.27,20,10000,,,,,2026-06-27T10:43:05+00:00,2026-06-27T23:10:56+00:00,-18000,801,Clouds,algo de nubes,02d,2026-06-27T16:30:04+00:00,stations,200
2026-06-27T16:30:04+00:00,Villa de Leyva,Villa de Leyva,Boyacá,CO,5.6338,-73.524,22.22,22.01,22.22,22.22,58,1014,1014,739,3.7,152,7.46,45,10000,,,,,2026-06-27T10:43:40+00:00,2026-06-27T23:10:26+00:00,-18000,802,Clouds,nubes dispersas,03d,2026-06-27T16:30:04+00:00,stations,200
2026-06-27T16:30:04+00:00,Aquitania,Aquitania,Boyacá,CO,5.5176,-72.8832,12.81,12.21,12.81,12.81,79,1021,1021,704,2.05,132,2.28,84,10000,,,,,2026-06-27T10:41:18+00:00,2026-06-27T23:07:40+00:00,-18000,803,Clouds,muy nuboso,04d,2026-06-27T16:30:04+00:00,stations,200
2026-06-27T16:30:04+00:00,Cuitiva,Pesca,Boyacá,CO,5.5803,-72.9662,15.66,15.32,15.66,15.66,78,1020,1020,703,2.51,127,2.85,75,10000,,,,,2026-06-27T10:41:32+00:00,2026-06-27T23:08:07+00:00,-18000,803,Clouds,muy nuboso,04d,2026-06-27T16:30:04+00:00,stations,200
2026-06-27T16:30:04+00:00,Firavitoba,Firavitoba,Boyacá,CO,5.6692,-72.9934,17.68,17.41,17.68,17.68,73,1018,1018,718,2.96,108,3.35,63,10000,,,,,2026-06-27T10:41:29+00:00,2026-06-27T23:08:23+00:00,-18000,803,Clouds,muy nuboso,04d,2026-06-27T16:30:04+00:00,stations,200
2026-06-27T16:30:04+00:00,Gameza,Gámeza,Boyacá,CO,5.802,-72.805,14.32,13.71,14.32,14.32,73,1020,1020,712,2.67,129,3.87,88,10000,,,,,2026-06-27T10:40:30+00:00,2026-06-27T23:07:51+00:00,-18000,804,Clouds,nubes,04d,2026-06-27T16:30:04+00:00,stations,200
2026-06-27T16:30:04+00:00,Iza,Firavitoba,Boyacá,CO,5.6123,-72.9795,16.12,15.77,16.12,16.12,76,1019,1019,709,2.71,121,3.17,69,10000,,,,,2026-06-27T10:41:32+00:00,2026-06-27T23:08:13+00:00,-18000,803,Clouds,muy nuboso,04d,2026-06-27T16:30:04+00:00,stations,200
2026-06-27T16:30:04+00:00,Mongua,Mongua,Boyacá,CO,5.7553,-72.7983,15.37,14.92,15.37,15.37,75,1020,1020,711,2.61,127,3.55,89,10000,,,,,2026-06-27T10:40:33+00:00,2026-06-27T23:07:45+00:00,-18000,804,Clouds,nubes,04d,2026-06-27T16:30:04+00:00,stations,200
2026-06-27T16:30:04+00:00,Mongui,Monguí,Boyacá,CO,5.7222,-72.8494,14.08,13.53,14.08,14.08,76,1020,1020,711,2.76,115,3.32,79,10000,,,,,2026-06-27T10:40:49+00:00,2026-06-27T23:07:54+00:00,-18000,803,Clouds,muy nuboso,04d,2026-06-27T16:30:04+00:00,stations,200
2026-06-27T16:30:04+00:00,Nobsa,Nobsa,Boyacá,CO,5.7706,-72.9397,17.54,17.18,17.54,17.54,70,1018,1018,720,3.1,109,3.67,69,10000,,,,,2026-06-27T10:41:05+00:00,2026-06-27T23:08:21+00:00,-18000,803,Clouds,muy nuboso,04d,2026-06-27T16:30:04+00:00,stations,200
2026-06-27T16:30:04+00:00,Pesca,Pesca,Boyacá,CO,5.5583,-73.0515,14.38,13.81,14.38,14.38,74,1018,1018,713,2.84,133,3.78,67,10000,,,,,2026-06-27T10:41:55+00:00,2026-06-27T23:08:25+00:00,-18000,803,Clouds,muy nuboso,04d,2026-06-27T16:30:04+00:00,stations,200
2026-06-27T16:30:04+00:00,Sogamoso,Sogamoso,Boyacá,CO,5.7148,-72.9279,17.65,17.35,17.65,17.65,72,1019,1019,718,3.02,107,3.41,68,10000,,,,,2026-06-27T10:41:08+00:00,2026-06-27T23:08:12+00:00,-18000,803,Clouds,muy nuboso,04d,2026-06-27T16:30:04+00:00,stations,200
2026-06-27T16:30:05+00:00,Tibasosa,Tibasosa,Boyacá,CO,5.7456,-73.0036,18.18,17.86,18.18,18.18,69,1018,1018,725,3.21,103,3.64,60,10000,,,,,2026-06-27T10:41:23+00:00,2026-06-27T23:08:33+00:00,-18000,803,Clouds,muy nuboso,04d,2026-06-27T16:30:05+00:00,stations,200
2026-06-27T16:30:05+00:00,Topaga,Tópaga,Boyacá,CO,5.7689,-72.832,15.67,15.25,15.67,15.67,75,1020,1020,712,2.73,122,3.59,84,10000,,,,,2026-06-27T10:40:40+00:00,2026-06-27T23:07:54+00:00,-18000,803,Clouds,muy nuboso,04d,2026-06-27T16:30:05+00:00,stations,200
2026-06-27T16:30:05+00:00,Tota,Pesca,Boyacá,CO,5.5611,-72.9859,15.27,14.86,15.27,15.27,77,1019,1019,707,2.63,129,3.11,72,10000,,,,,2026-06-27T10:41:39+00:00,2026-06-27T23:08:10+00:00,-18000,803,Clouds,muy nuboso,04d,2026-06-27T16:30:05+00:00,stations,200
2026-06-27T16:30:05+00:00,Belen,Belén,Boyacá,CO,5.9895,-72.9133,18.23,17.44,18.23,18.23,51,1015,1015,703,2.75,145,5.41,75,10000,,,,,2026-06-27T10:40:36+00:00,2026-06-27T23:08:37+00:00,-18000,803,Clouds,muy nuboso,04d,2026-06-27T16:30:05+00:00,stations,200
2026-06-27T16:30:05+00:00,Busbanza,Corrales,Boyacá,CO,5.8308,-72.8839,18.31,17.92,18.31,18.31,66,1018,1018,715,3.05,119,4.25,76,10000,,,,,2026-06-27T10:40:46+00:00,2026-06-27T23:08:13+00:00,-18000,803,Clouds,muy nuboso,04d,2026-06-27T16:30:05+00:00,stations,200
2026-06-27T16:30:05+00:00,Cerinza,Cerinza,Boyacá,CO,5.9559,-72.9479,18.29,17.56,18.29,18.29,53,1016,1016,706,2.91,139,5.24,76,10000,,,,,2026-06-27T10:40:48+00:00,2026-06-27T23:08:42+00:00,-18000,803,Clouds,muy nuboso,04d,2026-06-27T16:30:05+00:00,stations,200
2026-06-27T16:30:05+00:00,Corrales,Corrales,Boyacá,CO,5.8298,-72.8439,17.29,16.82,17.29,17.29,67,1018,1018,713,2.93,123,4.25,80,10000,,,,,2026-06-27T10:40:36+00:00,2026-06-27T23:08:04+00:00,-18000,803,Clouds,muy nuboso,04d,2026-06-27T16:30:05+00:00,stations,200
2026-06-27T16:30:05+00:00,Duitama,Duitama,Boyacá,CO,5.8277,-73.0339,19.1,18.63,19.1,19.1,60,1016,1016,725,3.35,109,4.4,62,10000,,,,,2026-06-27T10:41:22+00:00,2026-06-27T23:08:49+00:00,-18000,803,Clouds,muy nuboso,04d,2026-06-27T16:30:05+00:00,stations,200
2026-06-27T16:30:05+00:00,Floresta,Floresta,Boyacá,CO,5.8598,-72.9188,18.22,17.72,18.22,18.22,62,1017,1017,714,3.15,121,4.55,74,10000,,,,,2026-06-27T10:40:51+00:00,2026-06-27T23:08:25+00:00,-18000,803,Clouds,muy nuboso,04d,2026-06-27T16:30:05+00:00,stations,200
2026-06-27T16:30:05+00:00,Paipa,Paipa,Boyacá,CO,5.7813,-73.1177,16.78,16.05,16.78,16.78,59,1015,1015,730,3.24,106,4.86,55,10000,,,,,2026-06-27T10:41:47+00:00,2026-06-27T23:09:04+00:00,-18000,803,Clouds,muy nuboso,04d,2026-06-27T16:30:05+00:00,stations,200
2026-06-27T16:30:05+00:00,Santa Rosa de Viterbo,Santa Rosa de Viterbo,Boyacá,CO,5.8745,-72.9824,18.12,17.53,18.12,18.12,59,1016,1016,719,3.27,117,4.58,68,10000,,,,,2026-06-27T10:41:05+00:00,2026-06-27T23:08:42+00:00,-18000,803,Clouds,muy nuboso,04d,2026-06-27T16:30:05+00:00,stations,200
2026-06-27T16:30:05+00:00,Tutaza,Belén,Boyacá,CO,6.0321,-72.8567,16.44,15.39,16.44,16.44,48,1015,1015,705,2.67,146,5.48,69,10000,,,,,2026-06-27T10:40:18+00:00,2026-06-27T23:08:28+00:00,-18000,803,Clouds,muy nuboso,04d,2026-06-27T16:30:05+00:00,stations,200
2026-06-27T16:30:05+00:00,Beteitiva,Tasco,Boyacá,CO,5.9108,-72.8089,19.91,19.44,19.91,19.91,57,1017,1017,708,2.68,138,5.06,79,10000,,,,,2026-06-27T10:40:19+00:00,2026-06-27T23:08:04+00:00,-18000,803,Clouds,muy nuboso,04d,2026-06-27T16:30:05+00:00,stations,200
2026-06-27T16:30:05+00:00,Chita,Chita,Boyacá,CO,6.1872,-72.4729,16.5,15.72,16.5,16.5,58,1017,1017,706,4.96,130,5.18,64,10000,,,,,2026-06-27T10:38:30+00:00,2026-06-27T23:07:12+00:00,-18000,803,Clouds,muy nuboso,04d,2026-06-27T16:30:05+00:00,stations,200
2026-06-27T16:30:05+00:00,Jerico,Chita,Boyacá,CO,6.1464,-72.5704,18.73,18.04,18.73,18.73,53,1016,1016,701,5.47,128,5.91,57,10000,,,,,2026-06-27T10:38:57+00:00,2026-06-27T23:07:31+00:00,-18000,803,Clouds,muy nuboso,04d,2026-06-27T16:30:05+00:00,stations,200
2026-06-27T16:30:05+00:00,Paz de Rio,Paz de Río,Boyacá,CO,5.9853,-72.7491,19.11,18.41,19.11,19.11,51,1016,1016,708,2.73,137,5.37,69,10000,,,,,2026-06-27T10:39:57+00:00,2026-06-27T23:07:57+00:00,-18000,803,Clouds,muy nuboso,04d,2026-06-27T16:30:05+00:00,stations,200
2026-06-27T16:30:05+00:00,Socha,Socha Viejo,Boyacá,CO,5.9975,-72.6912,23.35,23.12,23.35,23.35,53,1016,1016,706,2.9,132,5.33,67,10000,,,,,2026-06-27T10:39:42+00:00,2026-06-27T23:07:45+00:00,-18000,803,Clouds,muy nuboso,04d,2026-06-27T16:30:05+00:00,stations,200
2026-06-27T16:30:05+00:00,Socota,Socotá,Boyacá,CO,6.0412,-72.6366,22.71,22.39,22.71,22.71,52,1016,1016,703,4.03,126,5.65,58,10000,,,,,2026-06-27T10:39:24+00:00,2026-06-27T23:07:36+00:00,-18000,803,Clouds,muy nuboso,04d,2026-06-27T16:30:05+00:00,stations,200
2026-06-27T16:30:05+00:00,Tasco,Tasco,Boyacá,CO,5.91,-72.7812,19.91,19.44,19.91,19.91,57,1017,1017,708,2.68,138,5.06,79,10000,,,,,2026-06-27T10:40:13+00:00,2026-06-27T23:07:57+00:00,-18000,803,Clouds,muy nuboso,04d,2026-06-27T16:30:05+00:00,stations,200
2026-06-27T16:30:05+00:00,Cubara,Cubará,Boyacá,CO,7.002,-72.1089,31.48,32.81,31.48,31.48,47,1014,1014,931,2.37,74,1.78,31,10000,,,,,2026-06-27T10:35:36+00:00,2026-06-27T23:07:11+00:00,-18000,802,Clouds,nubes dispersas,03d,2026-06-27T16:30:05+00:00,stations,200
2026-06-27T16:30:05+00:00,Puerto Boyaca,Puerto Boyacá,Boyacá,CO,5.9756,-74.5883,33.29,38.48,33.29,33.29,55,1008,1008,987,2.11,184,4.27,8,10000,,,,,2026-06-27T10:47:20+00:00,2026-06-27T23:15:18+00:00,-18000,800,Clear,cielo claro,01d,2026-06-27T16:30:05+00:00,stations,200
2026-06-28T02:14:15+00:00,Chiquiza,Sáchica,Boyacá,CO,5.6053,-73.4849,10.19,9.51,10.19,10.19,86,1020,1020,739,2.6,154,3.17,71,10000,,,,,2026-06-27T10:43:34+00:00,2026-06-27T23:10:14+00:00,-18000,803,Clouds,muy nuboso,04n,2026-06-28T02:14:15+00:00,stations,200
2026-06-28T02:14:15+00:00,Chivata,Siachoque,Boyacá,CO,5.5573,-73.283,11.01,10.54,11.01,11.01,91,1020,1020,724,1.6,158,2.05,84,8011,,,,,2026-06-27T10:42:50+00:00,2026-06-27T23:09:21+00:00,-18000,803,Clouds,muy nuboso,04n,2026-06-28T02:14:15+00:00,stations,200
2026-06-28T02:14:15+00:00,Combita,Combita,Boyacá,CO,5.6337,-73.3243,9.48,8.64,9.48,9.48,90,1020,1020,726,1.94,158,2.12,65,10000,,,,,2026-06-27T10:42:52+00:00,2026-06-27T23:09:38+00:00,-18000,803,Clouds,muy nuboso,04n,2026-06-28T02:14:15+00:00,stations,200
2026-06-28T02:14:15+00:00,Cucaita,Cucaita,Boyacá,CO,5.5431,-73.4548,11.78,11.29,11.78,11.78,87,1020,1020,737,2.28,153,2.48,81,10000,,,,,2026-06-27T10:43:33+00:00,2026-06-27T23:10:00+00:00,-18000,803,Clouds,muy nuboso,04n,2026-06-28T02:14:15+00:00,stations,200
2026-06-28T02:14:15+00:00,Motavita,Tunja,Boyacá,CO,5.5763,-73.3674,8.8,7.73,8.8,8.8,89,1020,1020,733,2.07,156,2.45,84,10000,,,,,2026-06-27T10:43:08+00:00,2026-06-27T23:09:43+00:00,-18000,803,Clouds,muy nuboso,04n,2026-06-28T02:14:15+00:00,stations,200
2026-06-28T02:14:15+00:00,Oicata,Combita,Boyacá,CO,5.5944,-73.3082,10.44,9.89,10.44,10.44,90,1020,1020,726,1.84,158,2.15,76,10000,,,,,2026-06-27T10:42:52+00:00,2026-06-27T23:09:30+00:00,-18000,803,Clouds,muy nuboso,04n,2026-06-28T02:14:15+00:00,stations,200
2026-06-28T02:14:15+00:00,Samaca,Samacá,Boyacá,CO,5.4918,-73.4853,12.01,11.54,12.01,12.01,87,1020,1020,737,2.26,152,2.23,77,10000,,,,,2026-06-27T10:43:46+00:00,2026-06-27T23:10:02+00:00,-18000,803,Clouds,muy nuboso,04n,2026-06-28T02:14:15+00:00,stations,200
2026-06-28T02:14:15+00:00,Siachoque,Siachoque,Boyacá,CO,5.5131,-73.2449,9.96,9.96,9.96,9.96,92,1020,1020,727,1.33,156,2.02,97,5096,,,,,2026-06-27T10:42:46+00:00,2026-06-27T23:09:07+00:00,-18000,804,Clouds,nubes,04n,2026-06-28T02:14:15+00:00,stations,200
2026-06-28T02:14:15+00:00,Sora,Cucaita,Boyacá,CO,5.5669,-73.4499,9.57,8.38,9.57,9.57,87,1020,1020,737,2.4,154,2.76,78,10000,,,,,2026-06-27T10:43:29+00:00,2026-06-27T23:10:02+00:00,-18000,803,Clouds,muy nuboso,04n,2026-06-28T02:14:15+00:00,stations,200
2026-06-28T02:14:15+00:00,Soraca,Tunja,Boyacá,CO,5.5011,-73.3329,10.62,10.09,10.62,10.62,90,1020,1020,732,1.47,157,1.97,97,7412,,,,,2026-06-27T10:43:08+00:00,2026-06-27T23:09:27+00:00,-18000,804,Clouds,nubes,04n,2026-06-28T02:14:15+00:00,stations,200
2026-06-28T02:14:15+00:00,Sotaquira,Sotaquirá,Boyacá,CO,5.7655,-73.2478,9.84,8.99,9.84,9.84,89,1019,1019,732,2.02,149,1.68,20,10000,,,,,2026-06-27T10:42:20+00:00,2026-06-27T23:09:34+00:00,-18000,801,Clouds,algo de nubes,02n,2026-06-28T02:14:15+00:00,stations,200
2026-06-28T02:14:16+00:00,Toca,Toca,Boyacá,CO,5.5651,-73.1847,11.44,11.04,11.44,11.44,92,1020,1020,718,1.51,149,2.1,77,9280,,,,,2026-06-27T10:42:26+00:00,2026-06-27T23:08:58+00:00,-18000,803,Clouds,muy nuboso,04n,2026-06-28T02:14:16+00:00,stations,200
2026-06-28T02:14:16+00:00,Tunja,Tunja,Boyacá,CO,5.5324,-73.3616,11.18,10.7,11.18,11.18,90,1020,1020,732,1.76,157,2.17,91,10000,,,,,2026-06-27T10:43:12+00:00,2026-06-27T23:09:37+00:00,-18000,804,Clouds,nubes,04n,2026-06-28T02:14:16+00:00,stations,200
2026-06-28T02:14:16+00:00,Tuta,Tuta,Boyacá,CO,5.6902,-73.2277,11.91,11.53,11.91,11.91,91,1020,1020,725,1.66,146,1.41,34,10000,,,,,2026-06-27T10:42:23+00:00,2026-06-27T23:09:21+00:00,-18000,802,Clouds,nubes dispersas,03n,2026-06-28T02:14:16+00:00,stations,200
2026-06-28T02:14:16+00:00,Ventaquemada,Ventaquemada,Boyacá,CO,5.3666,-73.5216,9.47,9,9.47,9.47,87,1021,1021,735,1.54,146,1.14,72,10000,,,,,2026-06-27T10:44:08+00:00,2026-06-27T23:09:58+00:00,-18000,803,Clouds,muy nuboso,04n,2026-06-28T02:14:16+00:00,stations,200
2026-06-28T02:14:16+00:00,Chiscas,Chiscas,Boyacá,CO,6.5535,-72.5004,11.3,10.6,11.3,11.3,81,1020,1020,714,2.47,81,1.96,50,10000,,,,,2026-06-27T10:37:58+00:00,2026-06-27T23:07:57+00:00,-18000,802,Clouds,nubes dispersas,03n,2026-06-28T02:14:16+00:00,stations,200
2026-06-28T02:14:16+00:00,El Cocuy,El Cocuy,Boyacá,CO,6.4077,-72.4458,11.09,10.4,11.09,11.09,82,1021,1021,691,3.01,95,2.89,32,10000,,,,,2026-06-27T10:38:00+00:00,2026-06-27T23:07:29+00:00,-18000,802,Clouds,nubes dispersas,03n,2026-06-28T02:14:16+00:00,stations,200
2026-06-28T02:14:16+00:00,El Espino,El Espino,Boyacá,CO,6.4826,-72.4952,13.94,13.48,13.94,13.94,80,1020,1020,721,2.78,89,2.4,34,10000,,,,,2026-06-27T10:38:04+00:00,2026-06-27T23:07:49+00:00,-18000,802,Clouds,nubes dispersas,03n,2026-06-28T02:14:16+00:00,stations,200
2026-06-28T02:14:16+00:00,Guacamayas,El Espino,Boyacá,CO,6.4599,-72.5012,14.26,13.83,14.26,14.26,80,1020,1020,722,2.99,93,2.74,27,10000,,,,,2026-06-27T10:38:08+00:00,2026-06-27T23:07:48+00:00,-18000,802,Clouds,nubes dispersas,03n,2026-06-28T02:14:16+00:00,stations,200
2026-06-28T02:14:16+00:00,Guican,Güicán,Boyacá,CO,6.4617,-72.412,8.55,7.06,8.55,8.55,84,1022,1022,670,2.57,107,2.55,52,10000,,,,,2026-06-27T10:37:46+00:00,2026-06-27T23:07:27+00:00,-18000,803,Clouds,muy nuboso,04n,2026-06-28T02:14:16+00:00,stations,200
2026-06-28T02:14:16+00:00,Panqueba,El Cocuy,Boyacá,CO,6.4427,-72.459,15.03,14.7,15.03,15.03,81,1021,1021,705,2.97,93,2.68,33,10000,,,,,2026-06-27T10:37:59+00:00,2026-06-27T23:07:36+00:00,-18000,802,Clouds,nubes dispersas,03n,2026-06-28T02:14:16+00:00,stations,200
2026-06-28T02:14:16+00:00,Labranzagrande,Labranzagrande,Boyacá,CO,5.5629,-72.578,17.85,17.94,17.85,17.85,86,1020,1020,811,1.76,307,1.51,57,10000,,,,,2026-06-27T10:40:00+00:00,2026-06-27T23:06:32+00:00,-18000,803,Clouds,muy nuboso,04n,2026-06-28T02:14:16+00:00,stations,200
2026-06-28T02:14:16+00:00,Pajarito,Pajarito,Boyacá,CO,5.2932,-72.7028,19.09,19.43,19.09,19.09,91,1018,1018,859,1.53,329,1.18,82,10000,,,,,2026-06-27T10:40:59+00:00,2026-06-27T23:06:34+00:00,-18000,803,Clouds,muy nuboso,04n,2026-06-28T02:14:16+00:00,stations,200
2026-06-28T02:14:16+00:00,Paya,Departamento de Boyacá,Boyacá,CO,5.625,-72.4234,19.7,20.05,19.7,19.7,89,1018,1018,858,2.55,313,1.33,33,10000,,,,,2026-06-27T10:39:17+00:00,2026-06-27T23:06:01+00:00,-18000,802,Clouds,nubes dispersas,03n,2026-06-28T02:14:16+00:00,stations,200
2026-06-28T02:14:16+00:00,Pisba,Labranzagrande,Boyacá,CO,5.7198,-72.4859,13.98,13.86,13.98,13.98,93,1020,1020,792,2.06,314,1.34,44,10000,,,,,2026-06-27T10:39:22+00:00,2026-06-27T23:06:26+00:00,-18000,802,Clouds,nubes dispersas,03n,2026-06-28T02:14:16+00:00,stations,200
2026-06-28T02:14:16+00:00,Berbeo,Miraflores,Boyacá,CO,5.2261,-73.1265,17.29,17.45,17.29,17.29,91,1019,1019,788,0.36,42,0.3,92,10000,,,,,2026-06-27T10:42:47+00:00,2026-06-27T23:08:08+00:00,-18000,804,Clouds,nubes,04n,2026-06-28T02:14:16+00:00,stations,200
2026-06-28T02:14:16+00:00,Campohermoso,Páez,Boyacá,CO,5.0315,-73.1044,16.01,15.96,16.01,16.01,88,1018,1018,848,1.12,329,0.78,89,10000,,,,,2026-06-27T10:43:02+00:00,2026-06-27T23:07:43+00:00,-18000,804,Clouds,nubes,04n,2026-06-28T02:14:16+00:00,stations,200
2026-06-28T02:14:16+00:00,Miraflores,Miraflores,Boyacá,CO,5.1955,-73.144,19.84,20.23,19.84,19.84,90,1019,1019,792,0.42,4,0.19,89,10000,,,,,2026-06-27T10:42:55+00:00,2026-06-27T23:08:09+00:00,-18000,804,Clouds,nubes,04n,2026-06-28T02:14:16+00:00,stations,200
2026-06-28T02:14:16+00:00,Paez,Páez,Boyacá,CO,5.102,-73.0522,22.13,22.77,22.13,22.13,91,1018,1018,843,0.96,347,0.47,91,10000,,,,,2026-06-27T10:42:43+00:00,2026-06-27T23:07:37+00:00,-18000,804,Clouds,nubes,04n,2026-06-28T02:14:16+00:00,stations,200
2026-06-28T02:14:16+00:00,San Eduardo,Miraflores,Boyacá,CO,5.2235,-73.0772,19.57,19.96,19.57,19.57,91,1019,1019,803,0.56,21,0.27,93,10000,,,,,2026-06-27T10:42:36+00:00,2026-06-27T23:07:56+00:00,-18000,804,Clouds,nubes,04n,2026-06-28T02:14:16+00:00,stations,200
2026-06-28T02:14:16+00:00,Zetaquira,Zetaquira,Boyacá,CO,5.2819,-73.1678,19.54,19.93,19.54,19.54,91,1020,1020,775,0.25,83,0.41,93,10000,,,,,2026-06-27T10:42:51+00:00,2026-06-27T23:08:24+00:00,-18000,804,Clouds,nubes,04n,2026-06-28T02:14:16+00:00,stations,200
2026-06-28T02:14:16+00:00,Boyaca,Ramiriquí,Boyacá,CO,5.4545,-73.3615,10.05,9.43,10.05,10.05,89,1020,1020,736,1.45,155,1.8,97,10000,,,,,2026-06-27T10:43:20+00:00,2026-06-27T23:09:29+00:00,-18000,804,Clouds,nubes,04n,2026-06-28T02:14:16+00:00,stations,200
2026-06-28T02:14:16+00:00,Cienega,Ciénega,Boyacá,CO,5.4098,-73.2955,13.72,13.52,13.72,13.72,91,1020,1020,741,0.87,155,1.32,100,10000,,,,,2026-06-27T10:43:09+00:00,2026-06-27T23:09:08+00:00,-18000,804,Clouds,nubes,04n,2026-06-28T02:14:16+00:00,stations,200
2026-06-28T02:14:16+00:00,Jenesano,Jenesano,Boyacá,CO,5.3854,-73.3644,15.33,15.24,15.33,15.33,89,1020,1020,745,0.88,151,1.02,95,10000,,,,,2026-06-27T10:43:28+00:00,2026-06-27T23:09:22+00:00,-18000,804,Clouds,nubes,04n,2026-06-28T02:14:16+00:00,stations,200
2026-06-28T02:14:16+00:00,Nuevo Colon,Turmequé,Boyacá,CO,5.355,-73.4572,12.98,12.61,12.98,12.98,87,1021,1021,742,1.14,143,0.92,82,10000,,,,,2026-06-27T10:43:53+00:00,2026-06-27T23:09:41+00:00,-18000,803,Clouds,muy nuboso,04n,2026-06-28T02:14:16+00:00,stations,200
2026-06-28T02:14:16+00:00,Ramiriqui,Ramiriquí,Boyacá,CO,5.4005,-73.3359,12.8,12.46,12.8,12.8,89,1020,1020,742,1.08,152,1.29,97,10000,,,,,2026-06-27T10:43:19+00:00,2026-06-27T23:09:17+00:00,-18000,804,Clouds,nubes,04n,2026-06-28T02:14:16+00:00,stations,200
2026-06-28T02:14:16+00:00,Rondon,Zetaquira,Boyacá,CO,5.3582,-73.2083,10.31,9.8,10.31,10.31,92,1020,1020,746,0.69,149,1.16,99,10000,,,,,2026-06-27T10:42:53+00:00,2026-06-27T23:08:42+00:00,-18000,804,Clouds,nubes,04n,2026-06-28T02:14:16+00:00,stations,200
2026-06-28T02:14:16+00:00,Tibana,Tibaná,Boyacá,CO,5.318,-73.3966,15.46,15.36,15.46,15.46,88,1020,1020,751,0.61,142,0.62,87,10000,,,,,2026-06-27T10:43:43+00:00,2026-06-27T23:09:23+00:00,-18000,804,Clouds,nubes,04n,2026-06-28T02:14:16+00:00,stations,200
2026-06-28T02:14:16+00:00,Turmeque,Turmequé,Boyacá,CO,5.3241,-73.4906,14.26,14.01,14.26,14.26,87,1021,1021,739,1.24,143,0.95,77,10000,,,,,2026-06-27T10:44:05+00:00,2026-06-27T23:09:46+00:00,-18000,803,Clouds,muy nuboso,04n,2026-06-28T02:14:16+00:00,stations,200
2026-06-28T02:14:16+00:00,Umbita,Úmbita,Boyacá,CO,5.2212,-73.457,12.34,11.82,12.34,12.34,84,1021,1021,755,0.21,104,0.48,80,10000,,,,,2026-06-27T10:44:07+00:00,2026-06-27T23:09:27+00:00,-18000,803,Clouds,muy nuboso,04n,2026-06-28T02:14:16+00:00,stations,200
2026-06-28T02:14:16+00:00,Viracacha,Ciénega,Boyacá,CO,5.435,-73.2962,12.52,12.2,12.52,12.52,91,1020,1020,736,1.05,156,1.6,100,7681,,,,,2026-06-27T10:43:06+00:00,2026-06-27T23:09:11+00:00,-18000,804,Clouds,nubes,04n,2026-06-28T02:14:16+00:00,stations,200
2026-06-28T02:14:16+00:00,Chinavita,Chinavita,Boyacá,CO,5.169,-73.3687,15.06,14.81,15.06,15.06,84,1020,1020,769,0.3,332,0.36,84,10000,,,,,2026-06-27T10:43:52+00:00,2026-06-27T23:09:00+00:00,-18000,803,Clouds,muy nuboso,04n,2026-06-28T02:14:16+00:00,stations,200
2026-06-28T02:14:17+00:00,Garagoa,Garagoa,Boyacá,CO,5.0822,-73.3643,18.27,18.27,18.27,18.27,81,1020,1020,794,0.95,316,0.6,90,10000,,,,,2026-06-27T10:44:00+00:00,2026-06-27T23:08:50+00:00,-18000,804,Clouds,nubes,04n,2026-06-28T02:14:17+00:00,stations,200
2026-06-28T02:14:17+00:00,Macanal,Macanal,Boyacá,CO,4.9723,-73.32,16.6,16.4,16.6,16.6,80,1019,1019,822,1.24,308,0.95,96,10000,,,,,2026-06-27T10:44:00+00:00,2026-06-27T23:08:28+00:00,-18000,804,Clouds,nubes,04n,2026-06-28T02:14:17+00:00,stations,200
2026-06-28T02:14:17+00:00,Pachavita,Pachavita,Boyacá,CO,5.1405,-73.3981,17.4,17.36,17.4,17.4,83,1020,1020,775,0.51,325,0.41,85,10000,,,,,2026-06-27T10:44:02+00:00,2026-06-27T23:09:04+00:00,-18000,804,Clouds,nubes,04n,2026-06-28T02:14:17+00:00,stations,200
2026-06-28T02:14:17+00:00,San Luis de Gaceno,San Luis de Gaceno,Boyacá,CO,4.8206,-73.1679,25.4,26.27,25.4,25.4,87,1017,1017,924,1.2,300,1.11,98,10000,,,,,2026-06-27T10:43:40+00:00,2026-06-27T23:07:36+00:00,-18000,804,Clouds,nubes,04n,2026-06-28T02:14:17+00:00,stations,200
2026-06-28T02:14:17+00:00,Santa Maria,Santa María,Boyacá,CO,4.8614,-73.2619,21.23,21.58,21.23,21.23,83,1018,1018,882,1.31,301,1.12,99,10000,,,,,2026-06-27T10:43:58+00:00,2026-06-27T23:08:03+00:00,-18000,804,Clouds,nubes,04n,2026-06-28T02:14:17+00:00,stations,200
2026-06-28T02:14:17+00:00,Boavita,Boavita,Boyacá,CO,6.329,-72.5823,13.93,13.47,13.93,13.93,80,1020,1020,735,3.57,134,5.27,9,10000,,,,,2026-06-27T10:38:41+00:00,2026-06-27T23:07:53+00:00,-18000,800,Clear,cielo claro,01n,2026-06-28T02:14:17+00:00,stations,200
2026-06-28T02:14:17+00:00,Covarachia,Capitanejo,Boyacá,CO,6.501,-72.7383,15.15,14.63,15.15,15.15,73,1016,1016,811,2.16,135,2.73,16,10000,,,,,2026-06-27T10:39:00+00:00,2026-06-27T23:08:49+00:00,-18000,801,Clouds,algo de nubes,02n,2026-06-28T02:14:17+00:00,stations,200
2026-06-28T02:14:17+00:00,La Uvita,La Uvita,Boyacá,CO,6.318,-72.5603,12.26,11.63,12.26,12.26,80,1020,1020,728,3.62,122,4.9,10,10000,,,,,2026-06-27T10:38:37+00:00,2026-06-27T23:07:47+00:00,-18000,800,Clear,cielo claro,01n,2026-06-28T02:14:17+00:00,stations,200
2026-06-28T02:14:17+00:00,San Mateo,San Mateo,Boyacá,CO,6.4018,-72.556,14.47,14.01,14.47,14.47,78,1019,1019,750,2.99,109,3.52,14,10000,,,,,2026-06-27T10:38:27+00:00,2026-06-27T23:07:55+00:00,-18000,801,Clouds,algo de nubes,02n,2026-06-28T02:14:17+00:00,stations,200
2026-06-28T02:14:17+00:00,Sativanorte,Susacón,Boyacá,CO,6.1319,-72.7076,10.24,9.64,10.24,10.24,89,1021,1021,707,3.19,172,4.16,13,10000,,,,,2026-06-27T10:39:32+00:00,2026-06-27T23:08:03+00:00,-18000,801,Clouds,algo de nubes,02n,2026-06-28T02:14:17+00:00,stations,200
2026-06-28T02:14:17+00:00,Sativasur,Socotá,Boyacá,CO,6.0935,-72.7127,7.68,5.87,7.68,7.68,90,1021,1021,709,2.79,173,3.39,11,10000,,,,,2026-06-27T10:39:37+00:00,2026-06-27T23:08:00+00:00,-18000,801,Clouds,algo de nubes,02n,2026-06-28T02:14:17+00:00,stations,200
2026-06-28T02:14:17+00:00,Soata,Soatá,Boyacá,CO,6.3352,-72.6804,9.66,7.71,9.66,9.66,78,1018,1018,764,3.73,165,5.39,6,10000,,,,,2026-06-27T10:39:04+00:00,2026-06-27T23:08:18+00:00,-18000,800,Clear,cielo claro,01n,2026-06-28T02:14:17+00:00,stations,200
2026-06-28T02:14:17+00:00,Susacon,Susacón,Boyacá,CO,6.2311,-72.6904,11.65,11.06,11.65,11.65,84,1020,1020,719,3.96,172,5.91,12,10000,,,,,2026-06-27T10:39:17+00:00,2026-06-27T23:08:09+00:00,-18000,801,Clouds,algo de nubes,02n,2026-06-28T02:14:17+00:00,stations,200
2026-06-28T02:14:17+00:00,Tipacoque,Tipacoque,Boyacá,CO,6.4212,-72.6914,13.32,12.69,13.32,13.32,76,1017,1017,788,3.11,156,4.2,6,10000,,,,,2026-06-27T10:38:57+00:00,2026-06-27T23:08:29+00:00,-18000,800,Clear,cielo claro,01n,2026-06-28T02:14:17+00:00,stations,200
2026-06-28T02:14:17+00:00,Briceno,Pauna,Boyacá,CO,5.6909,-73.9235,21.57,21.9,21.57,21.57,81,1016,1016,833,2.88,107,3.83,14,10000,,,,,2026-06-27T10:45:10+00:00,2026-06-27T23:12:08+00:00,-18000,801,Clouds,algo de nubes,02n,2026-06-28T02:14:17+00:00,stations,200
2026-06-28T02:14:17+00:00,Buenavista,Maripí,Boyacá,CO,5.5117,-73.9431,14.44,14.05,14.44,14.44,81,1019,1019,798,3.58,125,4.55,28,10000,,,,,2026-06-27T10:45:33+00:00,2026-06-27T23:11:54+00:00,-18000,802,Clouds,nubes dispersas,03n,2026-06-28T02:14:17+00:00,stations,200
2026-06-28T02:14:17+00:00,Caldas,Simijaca,Boyacá,CO,5.5546,-73.8655,11.08,10.41,11.08,11.08,83,1019,1019,785,3,125,4.05,24,10000,,,,,2026-06-27T10:45:10+00:00,2026-06-27T23:11:40+00:00,-18000,801,Clouds,algo de nubes,02n,2026-06-28T02:14:17+00:00,stations,200
2026-06-28T02:14:17+00:00,Chiquinquira,Chiquinquirá,Boyacá,CO,5.6183,-73.8167,11.02,10.4,11.02,11.02,85,1019,1019,768,2.4,136,3.53,21,10000,,,,,2026-06-27T10:44:52+00:00,2026-06-27T23:11:35+00:00,-18000,801,Clouds,algo de nubes,02n,2026-06-28T02:14:17+00:00,stations,200
2026-06-28T02:14:17+00:00,Coper,Coper,Boyacá,CO,5.4758,-74.0452,22.41,22.8,22.41,22.41,80,1018,1018,821,3.63,125,4.4,26,10000,,,,,2026-06-27T10:46:02+00:00,2026-06-27T23:12:15+00:00,-18000,802,Clouds,nubes dispersas,03n,2026-06-28T02:14:17+00:00,stations,200
2026-06-28T02:14:17+00:00,La Victoria,Quípama,Boyacá,CO,5.5235,-74.2346,18.62,18.7,18.62,18.62,83,1015,1015,885,1.73,143,1.36,8,10000,,,,,2026-06-27T10:46:42+00:00,2026-06-27T23:13:05+00:00,-18000,800,Clear,cielo claro,01n,2026-06-28T02:14:17+00:00,stations,200
2026-06-28T02:14:17+00:00,Maripi,Maripí,Boyacá,CO,5.5495,-74.0047,21.44,21.73,21.44,21.44,80,1017,1017,829,3.61,120,4.57,27,10000,,,,,2026-06-27T10:45:44+00:00,2026-06-27T23:12:13+00:00,-18000,802,Clouds,nubes dispersas,03n,2026-06-28T02:14:17+00:00,stations,200
2026-06-28T02:14:17+00:00,Muzo,Muzo,Boyacá,CO,5.5321,-74.1028,22.54,22.96,22.54,22.54,81,1016,1016,858,2.93,124,3.47,21,10000,,,,,2026-06-27T10:46:10+00:00,2026-06-27T23:12:35+00:00,-18000,801,Clouds,algo de nubes,02n,2026-06-28T02:14:17+00:00,stations,200
2026-06-28T02:14:17+00:00,Otanche,Otanche,Boyacá,CO,5.66,-74.1817,23,23.5,23,23,82,1014,1014,896,2.07,122,2.08,10,10000,,,,,2026-06-27T10:46:15+00:00,2026-06-27T23:13:07+00:00,-18000,800,Clear,cielo claro,01n,2026-06-28T02:14:17+00:00,stations,200
2026-06-28T02:14:17+00:00,Pauna,Pauna,Boyacá,CO,5.6574,-73.9789,21.06,21.34,21.06,21.06,81,1016,1016,843,3.13,107,4.04,18,10000,,,,,2026-06-27T10:45:27+00:00,2026-06-27T23:12:18+00:00,-18000,801,Clouds,algo de nubes,02n,2026-06-28T02:14:17+00:00,stations,200
2026-06-28T02:14:17+00:00,Quipama,Quípama,Boyacá,CO,5.523,-74.1812,21.95,22.34,21.95,21.95,82,1016,1016,873,2.21,133,2.33,14,10000,,,,,2026-06-27T10:46:29+00:00,2026-06-27T23:12:53+00:00,-18000,801,Clouds,algo de nubes,02n,2026-06-28T02:14:17+00:00,stations,200
2026-06-28T02:14:17+00:00,Saboya,Saboyá,Boyacá,CO,5.6975,-73.7657,8.93,7.8,8.93,8.93,85,1019,1019,765,2.18,147,3.48,19,10000,,,,,2026-06-27T10:44:31+00:00,2026-06-27T23:11:31+00:00,-18000,801,Clouds,algo de nubes,02n,2026-06-28T02:14:17+00:00,stations,200
2026-06-28T02:14:17+00:00,San Miguel de Sema,El Mirador,Boyacá,CO,5.519,-73.723,10.76,10.16,10.76,10.76,87,1021,1021,737,2.29,152,2.51,33,10000,,,,,2026-06-27T10:44:40+00:00,2026-06-27T23:11:02+00:00,-18000,802,Clouds,nubes dispersas,03n,2026-06-28T02:14:17+00:00,stations,200
2026-06-28T02:14:17+00:00,San Pablo de Borbur,San Pablo de Borbur,Boyacá,CO,5.6578,-74.0625,21.01,21.28,21.01,21.01,81,1015,1015,874,2.9,108,3.36,16,10000,,,,,2026-06-27T10:45:47+00:00,2026-06-27T23:12:38+00:00,-18000,801,Clouds,algo de nubes,02n,2026-06-28T02:14:17+00:00,stations,200
2026-06-28T02:14:17+00:00,Tunungua,Florián,Boyacá,CO,5.73,-73.933,21.7,22.07,21.7,21.7,82,1016,1016,835,2.77,105,3.58,12,10000,,,,,2026-06-27T10:45:08+00:00,2026-06-27T23:12:15+00:00,-18000,801,Clouds,algo de nubes,02n,2026-06-28T02:14:17+00:00,stations,200
2026-06-28T02:14:17+00:00,Almeida,Macanal,Boyacá,CO,4.9712,-73.3788,17.28,17.15,17.28,17.28,80,1020,1020,806,1.12,309,0.77,96,10000,,,,,2026-06-27T10:44:15+00:00,2026-06-27T23:08:42+00:00,-18000,804,Clouds,nubes,04n,2026-06-28T02:14:17+00:00,stations,200
2026-06-28T02:14:17+00:00,Chivor,Chivor,Boyacá,CO,4.8887,-73.3695,11.98,11.32,11.98,11.98,80,1019,1019,826,1.05,299,0.68,99,10000,,,,,2026-06-27T10:44:21+00:00,2026-06-27T23:08:31+00:00,-18000,804,Clouds,nubes,04n,2026-06-28T02:14:17+00:00,stations,200
2026-06-28T02:14:17+00:00,Guateque,Guateque,Boyacá,CO,5.0063,-73.4731,14.6,14.2,14.6,14.6,80,1020,1020,781,0.72,314,0.61,92,10000,,,,,2026-06-27T10:44:34+00:00,2026-06-27T23:09:08+00:00,-18000,804,Clouds,nubes,04n,2026-06-28T02:14:17+00:00,stations,200
2026-06-28T02:14:18+00:00,Guayata,Guayatá,Boyacá,CO,4.9648,-73.4907,18.11,18.07,18.11,18.11,80,1020,1020,787,0.7,304,0.59,95,10000,,,,,2026-06-27T10:44:42+00:00,2026-06-27T23:09:08+00:00,-18000,804,Clouds,nubes,04n,2026-06-28T02:14:18+00:00,stations,200
2026-06-28T02:14:18+00:00,La Capilla,Tenza,Boyacá,CO,5.0958,-73.4447,13.42,12.96,13.42,13.42,82,1020,1020,771,0.53,328,0.51,86,10000,,,,,2026-06-27T10:44:17+00:00,2026-06-27T23:09:11+00:00,-18000,804,Clouds,nubes,04n,2026-06-28T02:14:18+00:00,stations,200
2026-06-28T02:14:18+00:00,Somondoco,Somondoco,Boyacá,CO,4.986,-73.4326,19.27,19.34,19.27,19.27,80,1020,1020,791,0.88,310,0.64,94,10000,,,,,2026-06-27T10:44:26+00:00,2026-06-27T23:08:57+00:00,-18000,804,Clouds,nubes,04n,2026-06-28T02:14:18+00:00,stations,200
2026-06-28T02:14:18+00:00,Sutatenza,Guateque,Boyacá,CO,5.0231,-73.4508,15.89,15.62,15.89,15.89,80,1020,1020,787,0.86,314,0.63,93,10000,,,,,2026-06-27T10:44:27+00:00,2026-06-27T23:09:05+00:00,-18000,804,Clouds,nubes,04n,2026-06-28T02:14:18+00:00,stations,200
2026-06-28T02:14:18+00:00,Tenza,Tenza,Boyacá,CO,5.0767,-73.4198,17.1,16.98,17.1,17.1,81,1020,1020,782,0.8,320,0.57,90,10000,,,,,2026-06-27T10:44:13+00:00,2026-06-27T23:09:03+00:00,-18000,804,Clouds,nubes,04n,2026-06-28T02:14:18+00:00,stations,200
2026-06-28T02:14:18+00:00,Arcabuco,Arcabuco,Boyacá,CO,5.7543,-73.4364,12.46,12.01,12.46,12.46,86,1018,1018,757,2.55,159,3.64,46,10000,,,,,2026-06-27T10:43:06+00:00,2026-06-27T23:10:18+00:00,-18000,802,Clouds,nubes dispersas,03n,2026-06-28T02:14:18+00:00,stations,200
2026-06-28T02:14:18+00:00,Chitaraque,Santana,Boyacá,CO,6.028,-73.4469,15.36,15.22,15.36,15.36,87,1014,1014,826,1.97,171,2.25,10,10000,,,,,2026-06-27T10:42:40+00:00,2026-06-27T23:10:49+00:00,-18000,800,Clear,cielo claro,01n,2026-06-28T02:14:18+00:00,stations,200
2026-06-28T02:14:18+00:00,Gachantiva,Santa Sofía,Boyacá,CO,5.7516,-73.5483,13.47,13.09,13.47,13.47,85,1018,1018,758,2.55,163,4.15,47,10000,,,,,2026-06-27T10:43:33+00:00,2026-06-27T23:10:45+00:00,-18000,802,Clouds,nubes dispersas,03n,2026-06-28T02:14:18+00:00,stations,200
2026-06-28T02:14:18+00:00,Moniquira,Moniquirá,Boyacá,CO,5.8763,-73.5732,16.86,16.9,16.86,16.86,88,1016,1016,787,2.31,183,3.39,25,10000,,,,,2026-06-27T10:43:26+00:00,2026-06-27T23:11:04+00:00,-18000,802,Clouds,nubes dispersas,03n,2026-06-28T02:14:18+00:00,stations,200
2026-06-28T02:14:18+00:00,Raquira,Ráquira,Boyacá,CO,5.538,-73.6322,13.04,12.7,13.04,13.04,88,1021,1021,733,2.36,155,2.42,44,10000,,,,,2026-06-27T10:44:16+00:00,2026-06-27T23:10:42+00:00,-18000,802,Clouds,nubes dispersas,03n,2026-06-28T02:14:18+00:00,stations,200
2026-06-28T02:14:18+00:00,Sachica,Sáchica,Boyacá,CO,5.5845,-73.5428,15.12,14.93,15.12,15.12,86,1020,1020,737,2.67,155,3.28,63,10000,,,,,2026-06-27T10:43:50+00:00,2026-06-27T23:10:26+00:00,-18000,803,Clouds,muy nuboso,04n,2026-06-28T02:14:18+00:00,stations,200
2026-06-28T02:14:18+00:00,San Jose de Pare,Güepsa,Boyacá,CO,6.0176,-73.5479,17.82,17.98,17.82,17.82,89,1014,1014,821,1.98,186,2.21,9,10000,,,,,2026-06-27T10:43:05+00:00,2026-06-27T23:11:12+00:00,-18000,800,Clear,cielo claro,01n,2026-06-28T02:14:18+00:00,stations,200
2026-06-28T02:14:18+00:00,Santa Sofia,Santa Sofía,Boyacá,CO,5.7136,-73.6031,11.03,10.43,11.03,11.03,86,1019,1019,746,2.6,161,3.95,46,10000,,,,,2026-06-27T10:43:51+00:00,2026-06-27T23:10:54+00:00,-18000,802,Clouds,nubes dispersas,03n,2026-06-28T02:14:18+00:00,stations,200
2026-06-28T02:14:18+00:00,Santana,Santana,Boyacá,CO,6.0575,-73.4822,18.23,18.41,18.23,18.23,88,1013,1013,833,1.82,176,1.94,7,10000,,,,,2026-06-27T10:42:45+00:00,2026-06-27T23:11:01+00:00,-18000,800,Clear,cielo claro,01n,2026-06-28T02:14:18+00:00,stations,200
2026-06-28T02:14:18+00:00,Sutamarchan,Sutamarchán,Boyacá,CO,5.6205,-73.6204,13.35,12.99,13.35,13.35,86,1020,1020,739,2.63,157,3.49,49,10000,,,,,2026-06-27T10:44:05+00:00,2026-06-27T23:10:48+00:00,-18000,802,Clouds,nubes dispersas,03n,2026-06-28T02:14:18+00:00,stations,200
2026-06-28T02:14:18+00:00,Tinjaca,Tres Esquinas,Boyacá,CO,5.5796,-73.6467,14.44,14.21,14.44,14.44,87,1020,1020,734,2.45,156,2.75,44,10000,,,,,2026-06-27T10:44:15+00:00,2026-06-27T23:10:50+00:00,-18000,802,Clouds,nubes dispersas,03n,2026-06-28T02:14:18+00:00,stations,200
2026-06-28T02:14:18+00:00,Togui,Moniquirá,Boyacá,CO,5.9378,-73.5131,17.17,17.21,17.17,17.17,87,1016,1016,802,2.19,178,3,21,10000,,,,,2026-06-27T10:43:05+00:00,2026-06-27T23:10:56+00:00,-18000,801,Clouds,algo de nubes,02n,2026-06-28T02:14:18+00:00,stations,200
2026-06-28T02:14:18+00:00,Villa de Leyva,Villa de Leyva,Boyacá,CO,5.6338,-73.524,14.66,14.43,14.66,14.66,86,1019,1019,740,2.7,155,3.57,65,10000,,,,,2026-06-27T10:43:40+00:00,2026-06-27T23:10:26+00:00,-18000,803,Clouds,muy nuboso,04n,2026-06-28T02:14:18+00:00,stations,200
2026-06-28T02:14:18+00:00,Aquitania,Aquitania,Boyacá,CO,5.5176,-72.8832,9.39,8.99,9.39,9.39,90,1022,1022,704,1.47,138,2.18,80,10000,,,,,2026-06-27T10:41:18+00:00,2026-06-27T23:07:40+00:00,-18000,803,Clouds,muy nuboso,04n,2026-06-28T02:14:18+00:00,stations,200
2026-06-28T02:14:18+00:00,Cuitiva,Pesca,Boyacá,CO,5.5803,-72.9662,11.59,11.15,11.59,11.59,90,1022,1022,704,1.86,131,2.55,66,10000,,,,,2026-06-27T10:41:32+00:00,2026-06-27T23:08:07+00:00,-18000,803,Clouds,muy nuboso,04n,2026-06-28T02:14:18+00:00,stations,200
2026-06-28T02:14:18+00:00,Firavitoba,Firavitoba,Boyacá,CO,5.6692,-72.9934,12.15,11.72,12.15,12.15,88,1021,1021,719,1.75,109,2.15,45,10000,,,,,2026-06-27T10:41:29+00:00,2026-06-27T23:08:23+00:00,-18000,802,Clouds,nubes dispersas,03n,2026-06-28T02:14:18+00:00,stations,200
2026-06-28T02:14:18+00:00,Gameza,Gámeza,Boyacá,CO,5.802,-72.805,8.61,7.56,8.61,8.61,93,1022,1022,713,2.02,118,2.28,35,10000,,,,,2026-06-27T10:40:30+00:00,2026-06-27T23:07:51+00:00,-18000,802,Clouds,nubes dispersas,03n,2026-06-28T02:14:18+00:00,stations,200
2026-06-28T02:14:18+00:00,Iza,Firavitoba,Boyacá,CO,5.6123,-72.9795,11.44,10.96,11.44,11.44,89,1021,1021,710,1.8,125,2.47,58,10000,,,,,2026-06-27T10:41:32+00:00,2026-06-27T23:08:13+00:00,-18000,803,Clouds,muy nuboso,04n,2026-06-28T02:14:18+00:00,stations,200
2026-06-28T02:14:18+00:00,Mongua,Mongua,Boyacá,CO,5.7553,-72.7983,10.3,9.79,10.3,10.3,92,1022,1022,712,2.01,118,2.41,41,10000,,,,,2026-06-27T10:40:33+00:00,2026-06-27T23:07:45+00:00,-18000,802,Clouds,nubes dispersas,03n,2026-06-28T02:14:18+00:00,stations,200
2026-06-28T02:14:18+00:00,Mongui,Monguí,Boyacá,CO,5.7222,-72.8494,9.06,8.01,9.06,9.06,90,1022,1022,712,2.11,111,2.4,43,10000,,,,,2026-06-27T10:40:49+00:00,2026-06-27T23:07:54+00:00,-18000,802,Clouds,nubes dispersas,03n,2026-06-28T02:14:18+00:00,stations,200
2026-06-28T02:14:18+00:00,Nobsa,Nobsa,Boyacá,CO,5.7706,-72.9397,11.24,10.74,11.24,11.24,89,1021,1021,721,2.03,99,2.14,33,10000,,,,,2026-06-27T10:41:05+00:00,2026-06-27T23:08:21+00:00,-18000,802,Clouds,nubes dispersas,03n,2026-06-28T02:14:18+00:00,stations,200
2026-06-28T02:14:18+00:00,Pesca,Pesca,Boyacá,CO,5.5583,-73.0515,9.36,8.67,9.36,9.36,91,1021,1021,713,1.75,135,2.51,66,10000,,,,,2026-06-27T10:41:55+00:00,2026-06-27T23:08:25+00:00,-18000,803,Clouds,muy nuboso,04n,2026-06-28T02:14:18+00:00,stations,200
2026-06-28T02:14:18+00:00,Sogamoso,Sogamoso,Boyacá,CO,5.7148,-72.9279,11.89,11.43,11.89,11.89,88,1021,1021,719,2.01,102,2.2,38,10000,,,,,2026-06-27T10:41:08+00:00,2026-06-27T23:08:12+00:00,-18000,802,Clouds,nubes dispersas,03n,2026-06-28T02:14:18+00:00,stations,200
2026-06-28T02:14:18+00:00,Tibasosa,Tibasosa,Boyacá,CO,5.7456,-73.0036,11.67,11.19,11.67,11.67,88,1021,1021,726,1.8,96,1.9,33,10000,,,,,2026-06-27T10:41:23+00:00,2026-06-27T23:08:33+00:00,-18000,802,Clouds,nubes dispersas,03n,2026-06-28T02:14:18+00:00,stations,200
2026-06-28T02:14:18+00:00,Topaga,Tópaga,Boyacá,CO,5.7689,-72.832,10.38,9.85,10.38,10.38,91,1022,1022,712,2.11,114,2.39,39,10000,,,,,2026-06-27T10:40:40+00:00,2026-06-27T23:07:54+00:00,-18000,802,Clouds,nubes dispersas,03n,2026-06-28T02:14:18+00:00,stations,200
2026-06-28T02:14:18+00:00,Tota,Pesca,Boyacá,CO,5.5611,-72.9859,10.9,10.4,10.9,10.9,90,1021,1021,707,1.86,132,2.59,65,10000,,,,,2026-06-27T10:41:39+00:00,2026-06-27T23:08:10+00:00,-18000,803,Clouds,muy nuboso,04n,2026-06-28T02:14:18+00:00,stations,200
2026-06-28T02:14:18+00:00,Belen,Belén,Boyacá,CO,5.9895,-72.9133,8.41,7.21,8.41,8.41,92,1021,1021,704,2.15,125,2.36,14,10000,,,,,2026-06-27T10:40:36+00:00,2026-06-27T23:08:37+00:00,-18000,801,Clouds,algo de nubes,02n,2026-06-28T02:14:18+00:00,stations,200
2026-06-28T02:14:19+00:00,Busbanza,Corrales,Boyacá,CO,5.8308,-72.8839,11.19,10.74,11.19,11.19,91,1021,1021,716,2.07,104,2.1,26,10000,,,,,2026-06-27T10:40:46+00:00,2026-06-27T23:08:13+00:00,-18000,802,Clouds,nubes dispersas,03n,2026-06-28T02:14:19+00:00,stations,200
2026-06-28T02:14:19+00:00,Cerinza,Cerinza,Boyacá,CO,5.9559,-72.9479,8.74,7.59,8.74,8.74,91,1021,1021,707,2.16,117,2.39,16,10000,,,,,2026-06-27T10:40:48+00:00,2026-06-27T23:08:42+00:00,-18000,801,Clouds,algo de nubes,02n,2026-06-28T02:14:19+00:00,stations,200
2026-06-28T02:14:19+00:00,Corrales,Corrales,Boyacá,CO,5.8298,-72.8439,10.44,9.92,10.44,10.44,91,1022,1022,714,2.08,109,2.12,27,10000,,,,,2026-06-27T10:40:36+00:00,2026-06-27T23:08:04+00:00,-18000,802,Clouds,nubes dispersas,03n,2026-06-28T02:14:19+00:00,stations,200
2026-06-28T02:14:19+00:00,Duitama,Duitama,Boyacá,CO,5.8277,-73.0339,10.83,10.27,10.83,10.83,88,1020,1020,726,1.86,97,1.91,20,10000,,,,,2026-06-27T10:41:22+00:00,2026-06-27T23:08:49+00:00,-18000,801,Clouds,algo de nubes,02n,2026-06-28T02:14:19+00:00,stations,200
2026-06-28T02:14:19+00:00,Floresta,Floresta,Boyacá,CO,5.8598,-72.9188,10.25,9.71,10.25,10.25,91,1021,1021,715,2.02,103,2.07,21,10000,,,,,2026-06-27T10:40:51+00:00,2026-06-27T23:08:25+00:00,-18000,801,Clouds,algo de nubes,02n,2026-06-28T02:14:19+00:00,stations,200
2026-06-28T02:14:19+00:00,Paipa,Paipa,Boyacá,CO,5.7813,-73.1177,8.18,7.36,8.18,8.18,88,1020,1020,732,1.7,114,1.56,15,10000,,,,,2026-06-27T10:41:47+00:00,2026-06-27T23:09:04+00:00,-18000,801,Clouds,algo de nubes,02n,2026-06-28T02:14:19+00:00,stations,200
2026-06-28T02:14:19+00:00,Santa Rosa de Viterbo,Santa Rosa de Viterbo,Boyacá,CO,5.8745,-72.9824,9.66,8.82,9.66,9.66,89,1021,1021,720,1.97,100,2.09,19,10000,,,,,2026-06-27T10:41:05+00:00,2026-06-27T23:08:42+00:00,-18000,801,Clouds,algo de nubes,02n,2026-06-28T02:14:19+00:00,stations,200
2026-06-28T02:14:19+00:00,Tutaza,Belén,Boyacá,CO,6.0321,-72.8567,6.36,4.91,6.36,6.36,92,1021,1021,706,2.04,143,2.35,11,10000,,,,,2026-06-27T10:40:18+00:00,2026-06-27T23:08:28+00:00,-18000,801,Clouds,algo de nubes,02n,2026-06-28T02:14:19+00:00,stations,200
2026-06-28T02:14:19+00:00,Beteitiva,Tasco,Boyacá,CO,5.9108,-72.8089,11.3,10.91,11.3,11.3,93,1022,1022,709,1.8,130,1.69,17,10000,,,,,2026-06-27T10:40:19+00:00,2026-06-27T23:08:04+00:00,-18000,801,Clouds,algo de nubes,02n,2026-06-28T02:14:19+00:00,stations,200
2026-06-28T02:14:19+00:00,Chita,Chita,Boyacá,CO,6.1872,-72.4729,7.85,6.06,7.85,7.85,87,1022,1022,707,2.81,109,3.58,18,10000,,,,,2026-06-27T10:38:30+00:00,2026-06-27T23:07:12+00:00,-18000,801,Clouds,algo de nubes,02n,2026-06-28T02:14:19+00:00,stations,200
2026-06-28T02:14:19+00:00,Jerico,Chita,Boyacá,CO,6.1464,-72.5704,9.2,7.38,9.2,9.2,88,1022,1022,702,3.3,139,4.29,20,10000,,,,,2026-06-27T10:38:57+00:00,2026-06-27T23:07:31+00:00,-18000,801,Clouds,algo de nubes,02n,2026-06-28T02:14:19+00:00,stations,200
2026-06-28T02:14:19+00:00,Paz de Rio,Paz de Río,Boyacá,CO,5.9853,-72.7491,9.43,8.67,9.43,9.43,93,1021,1021,709,1.84,153,1.83,13,10000,,,,,2026-06-27T10:39:57+00:00,2026-06-27T23:07:57+00:00,-18000,801,Clouds,algo de nubes,02n,2026-06-28T02:14:19+00:00,stations,200
2026-06-28T02:14:19+00:00,Socha,Socha Viejo,Boyacá,CO,5.9975,-72.6912,13.85,13.72,13.85,13.85,93,1022,1022,707,1.84,159,1.74,19,10000,,,,,2026-06-27T10:39:42+00:00,2026-06-27T23:07:45+00:00,-18000,801,Clouds,algo de nubes,02n,2026-06-28T02:14:19+00:00,stations,200
2026-06-28T02:14:19+00:00,Socota,Socotá,Boyacá,CO,6.0412,-72.6366,12.96,12.71,12.96,12.96,92,1022,1022,703,2.45,161,2.68,22,10000,,,,,2026-06-27T10:39:24+00:00,2026-06-27T23:07:36+00:00,-18000,801,Clouds,algo de nubes,02n,2026-06-28T02:14:19+00:00,stations,200
2026-06-28T02:14:19+00:00,Tasco,Tasco,Boyacá,CO,5.91,-72.7812,11.3,10.91,11.3,11.3,93,1022,1022,709,1.8,130,1.69,17,10000,,,,,2026-06-27T10:40:13+00:00,2026-06-27T23:07:57+00:00,-18000,801,Clouds,algo de nubes,02n,2026-06-28T02:14:19+00:00,stations,200
2026-06-28T02:14:19+00:00,Cubara,Cubará,Boyacá,CO,7.002,-72.1089,23.05,23.63,23.05,23.05,85,1016,1016,932,1.44,245,1.17,54,10000,,,,,2026-06-27T10:35:36+00:00,2026-06-27T23:07:11+00:00,-18000,803,Clouds,muy nuboso,04n,2026-06-28T02:14:19+00:00,stations,200
2026-06-28T02:14:19+00:00,Puerto Boyaca,Puerto Boyacá,Boyacá,CO,5.9756,-74.5883,26.53,26.53,26.53,26.53,72,1009,1009,988,0.38,325,0.74,11,10000,,,,,2026-06-27T10:47:20+00:00,2026-06-27T23:15:18+00:00,-18000,801,Clouds,algo de nubes,02n,2026-06-28T02:14:19+00:00,stations,200
2026-06-29T02:13:41+00:00,Chiquiza,Sáchica,Boyacá,CO,5.6053,-73.4849,11.6,11.17,11.6,11.6,90,1019,1019,739,2.64,139,3.51,100,8541,,,,,2026-06-28T10:43:47+00:00,2026-06-28T23:10:24+00:00,-18000,804,Clouds,nubes,04n,2026-06-29T02:13:41+00:00,stations,200
2026-06-29T02:13:41+00:00,Chivata,Siachoque,Boyacá,CO,5.5573,-73.283,12.47,12.17,12.47,12.47,92,1020,1020,724,1.39,150,2.08,100,5914,,,,,2026-06-28T10:43:03+00:00,2026-06-28T23:09:31+00:00,-18000,804,Clouds,nubes,04n,2026-06-29T02:13:41+00:00,stations,200
2026-06-29T02:13:41+00:00,Combita,Combita,Boyacá,CO,5.6337,-73.3243,11.14,10.71,11.14,11.14,92,1020,1020,726,1.79,147,2.47,99,10000,,,,,2026-06-28T10:43:05+00:00,2026-06-28T23:09:49+00:00,-18000,804,Clouds,nubes,04n,2026-06-29T02:13:41+00:00,stations,200
2026-06-29T02:13:41+00:00,Cucaita,Cucaita,Boyacá,CO,5.5431,-73.4548,13.09,12.78,13.09,13.09,89,1020,1020,737,2.38,135,3.02,100,4167,,,,,2026-06-28T10:43:46+00:00,2026-06-28T23:10:11+00:00,-18000,804,Clouds,nubes,04n,2026-06-29T02:13:41+00:00,stations,200
2026-06-29T02:13:41+00:00,Motavita,Tunja,Boyacá,CO,5.5763,-73.3674,10.18,9.63,10.18,10.18,91,1020,1020,733,2.01,142,2.72,100,5855,,,,,2026-06-28T10:43:21+00:00,2026-06-28T23:09:53+00:00,-18000,804,Clouds,nubes,04n,2026-06-29T02:13:41+00:00,stations,200
2026-06-29T02:13:41+00:00,Oicata,Combita,Boyacá,CO,5.5944,-73.3082,11.97,11.62,11.97,11.97,92,1020,1020,726,1.68,148,2.37,100,8911,,,,,2026-06-28T10:43:05+00:00,2026-06-28T23:09:41+00:00,-18000,804,Clouds,nubes,04n,2026-06-29T02:13:41+00:00,stations,200
2026-06-29T02:13:41+00:00,Samaca,Samacá,Boyacá,CO,5.4918,-73.4853,13.29,13,13.29,13.29,89,1020,1020,737,2.45,132,3.05,100,3055,,,,,2026-06-28T10:43:59+00:00,2026-06-28T23:10:12+00:00,-18000,804,Clouds,nubes,04n,2026-06-29T02:13:41+00:00,stations,200
2026-06-29T02:13:41+00:00,Siachoque,Siachoque,Boyacá,CO,5.5131,-73.2449,11.24,10.85,11.24,11.24,93,1020,1020,726,1.08,151,1.82,100,368,,,,,2026-06-28T10:42:59+00:00,2026-06-28T23:09:17+00:00,-18000,804,Clouds,nubes,04n,2026-06-29T02:13:41+00:00,stations,200
2026-06-29T02:13:41+00:00,Sora,Cucaita,Boyacá,CO,5.5669,-73.4499,10.93,10.43,10.93,10.93,90,1020,1020,737,2.45,138,3.17,100,6145,,,,,2026-06-28T10:43:42+00:00,2026-06-28T23:10:12+00:00,-18000,804,Clouds,nubes,04n,2026-06-29T02:13:41+00:00,stations,200
2026-06-29T02:13:41+00:00,Soraca,Tunja,Boyacá,CO,5.5011,-73.3329,11.87,11.51,11.87,11.87,92,1020,1020,732,1.31,145,2.04,100,802,,,,,2026-06-28T10:43:21+00:00,2026-06-28T23:09:37+00:00,-18000,804,Clouds,nubes,04n,2026-06-29T02:13:41+00:00,stations,200
2026-06-29T02:13:41+00:00,Sotaquira,Sotaquirá,Boyacá,CO,5.7655,-73.2478,12.31,11.92,12.31,12.31,89,1019,1019,732,1.94,139,2.49,100,10000,,,,,2026-06-28T10:42:33+00:00,2026-06-28T23:09:44+00:00,-18000,804,Clouds,nubes,04n,2026-06-29T02:13:41+00:00,stations,200
